OBJECTID,List entry number,Name,Schedule date,Amendment date,Capture scale,NHLE link,Area (ha),National Grid Reference,Easting,Northing,Name_2,description,timestamp,begin,end,altitudeMode,tessellate,extrude,visibility,drawOrder,icon,fid,OBJECTID_2,ListEntry,SchedDate,AmendDate,CaptureSca,hyperlink,area_ha,NGR,Easting_2,Northing_2,SHAPE_Leng,SHAPE_Area,longitude,latitude
1,1001718,Mound S of Woodbrook,,,1:10000,https://historicengland.org.uk/listing/the-list/list-entry/1001718,0.214314221290903,SO 30447 54456,330447,254456,Mound S of Woodbrook,,,,,,-1,0,-1,,,2776,1,1001718,,,1:10000,https://historicengland.org.uk/listing/the-list/list-entry/1001718,0.214314221290903,SO 30447 54456,330447.35750007,254456.07719453,167.197167839106,2141.68803202491,-3.01872132411239,52.18394763264223
4,1001721,Mound 1200yds (1100m) NNE of the Church,8/24/1935 1:09:27 PM,,1:10000,https://historicengland.org.uk/listing/the-list/list-entry/1001721,0.288699680306159,SO 37237 68101,337237,268101,Mound 1200yds (1100m) NNE of the Church,,,,,,-1,0,-1,,,2779,4,1001721,1935/08/24,,1:10000,https://historicengland.org.uk/listing/the-list/list-entry/1001721,0.288699680306159,SO 37237 68101,337236.91800117,268100.87269349,192.487742740781,2884.97415700167,-2.9219629937513574,52.30742046128547
7,1001724,Megalithic tomb 220yds (200m) SW of Trevarthen,,,1:10000,https://historicengland.org.uk/listing/the-list/list-entry/1001724,0.0200519183321827,SW 40442 29570,140442,29570,Megalithic tomb 220yds (200m) SW of Trevarthen,,,,,,-1,0,-1,,,2780,7,1001724,,,1:10000,https://historicengland.org.uk/listing/the-list/list-entry/1001724,0.020051918332183,SW 40442 29570,140441.60199928,29570.37999916,50.2427226673252,200.691242495909,-5.631627386327408,50.10935443920342
8,1001725,Hut circle 280yds (250m) SW of Trevarthen,,,1:10000,https://historicengland.org.uk/listing/the-list/list-entry/1001725,0.0200547079753154,SW 40423 29519,140423,29519,Hut circle 280yds (250m) SW of Trevarthen,,,,,,-1,0,-1,,,2781,8,1001725,,,1:10000,https://historicengland.org.uk/listing/the-list/list-entry/1001725,0.020054707975315,SW 40423 29519,140423.21899986,29519.42799949,50.2466404043648,200.719206996653,-5.631857895336076,50.10888838133015
13,1001730,Two bowl barrows 250m west of Silverwell Farm,10/20/1975 12:00:00 AM,,1:10000,https://historicengland.org.uk/listing/the-list/list-entry/1001730,0.10306758540031,"SW 73071 33232, SW 73025 33193",173071,33232,Two bowl barrows 250m west of Silverwell Farm,,,,,,-1,0,-1,,,2777,13,1001730,1975/10/20,,1:10000,https://historicengland.org.uk/listing/the-list/list-entry/1001730,0.10306758540031,"SW 73071 33232, SW 73025 33193","173070.80250167, 173070.80250167","33231.90899966, 33231.90899966",161.040153119928,1031.15827151412,-5.178241661895994,50.155608879631934
15,1001732,Offa's Dyke: the section extending 165yds (150m) N from Berry Wood,6/5/1935 1:09:27 PM,,1:10000,https://historicengland.org.uk/listing/the-list/list-entry/1001732,0.605342632747427,SO 32395 58700,332395,258700,Offa's Dyke: the section extending 165yds (150m) N from Berry Wood,,,,,,-1,0,-1,,,2785,15,1001732,1935/06/05,,1:10000,https://historicengland.org.uk/listing/the-list/list-entry/1001732,0.605342632747427,SO 32395 58700,332394.74950027,258700.38875775,386.287229265014,6049.27921954522,-2.9910825713605207,52.222339703021376
19,1001736,"Offa's Dyke: Upperton Farm, two sections extending 195yds (180m) and 370yds (340m) S from Yazor",7/12/1935 1:09:27 PM,,1:10000,https://historicengland.org.uk/listing/the-list/list-entry/1001736,1.31969520072322,"SO 39458 46771, SO 39469 46446",339469,246446,"Offa's Dyke: Upperton Farm, two sections extending 195yds (180m) and 370yds (340m) S from Yazor",,,,,,-1,0,-1,,,2778,19,1001736,1935/07/12,,1:10000,https://historicengland.org.uk/listing/the-list/list-entry/1001736,1.31969520072322,"SO 39458 46771, SO 39469 46446","339468.86400032, 339468.86400032","246446.05609369, 246446.05609369",1124.91101554152,13187.6184090868,-2.8853512912686385,52.11300838961485
20,1001737,Offa's Dyke: the section extending 230yds (210m) N and S of the Old Barn near Kenmoor Coppice (SE of Bowmore Wood),6/5/1935 1:09:27 PM,,1:10000,https://historicengland.org.uk/listing/the-list/list-entry/1001737,0.674984187388363,SO 39505 45557,339505,245557,Offa's Dyke: the section extending 230yds (210m) N and S of the Old Barn near Kenmoor Coppice (SE of Bowmore Wood),,,,,,-1,0,-1,,,2775,20,1001737,1935/06/05,,1:10000,https://historicengland.org.uk/listing/the-list/list-entry/1001737,0.674984187388363,SO 39505 45557,339504.75550079,245557.42286799,498.147540222514,6745.06802899185,-2.8846674213323977,52.1050207129801
45,1001762,Orcop Castle,,,1:10000,https://historicengland.org.uk/listing/the-list/list-entry/1001762,0.835367972860887,SO 47289 26583,347289,226583,Orcop Castle,,,,,,-1,0,-1,,,2797,45,1001762,,,1:10000,https://historicengland.org.uk/listing/the-list/list-entry/1001762,0.835367972860887,SO 47289 26583,347289.38000106,226583.41132231,360.116142142379,8347.58910551444,-2.768101365308203,51.93524546443283
48,1001765,Garway Dovecote,,,1:10000,https://historicengland.org.uk/listing/the-list/list-entry/1001765,0.0156306762881907,SO4554122413,345541,222413,Garway Dovecote,,,,,,-1,0,-1,,,2803,48,1001765,,,1:10000,https://historicengland.org.uk/listing/the-list/list-entry/1001765,0.015630676288191,SO4554122413,345540.648801804,222412.798799863,44.3284452018139,156.193503490799,-2.792862991853851,51.89758866178173
49,1001766,Little Doward Camp,11/26/1928 12:00:00 AM,,1:10000,https://historicengland.org.uk/listing/the-list/list-entry/1001766,11.5304279964846,SO 53977 15981,353977,215981,Little Doward Camp,,,,,,-1,0,-1,,,2800,49,1001766,1928/11/26,,1:10000,https://historicengland.org.uk/listing/the-list/list-entry/1001766,11.5304279964846,SO 53977 15981,353977.3655014,215980.6774409,1384.62646799205,115218.345452182,-2.669412525151644,51.84052550889235
58,1001775,Lower Park Wood Camp,,,1:10000,https://historicengland.org.uk/listing/the-list/list-entry/1001775,2.46508684751991,SO 35924 37674,335924,237674,Lower Park Wood Camp,,,,,,-1,0,-1,,,2782,58,1001775,,,1:10000,https://historicengland.org.uk/listing/the-list/list-entry/1001775,2.46508684751991,SO 35924 37674,335923.93449974,237674.04321821,574.776850745292,24633.6990510742,-2.935461704885538,52.033753416342954
59,1001776,Newton Tump,,,1:10000,https://historicengland.org.uk/listing/the-list/list-entry/1001776,0.918503877640884,SO 29301 44059,329301,244059,Newton Tump,,,,,,-1,0,-1,,,2784,59,1001776,,,1:10000,https://historicengland.org.uk/listing/the-list/list-entry/1001776,0.918503877640884,SO 29301 44059,329300.94550132,244058.60266214,353.658580304475,9178.84310954548,-3.0333145656194875,52.090342898265476
67,1001784,"River Wey aqueduct, Bramshott Court",,,1:10000,https://historicengland.org.uk/listing/the-list/list-entry/1001784,0.0386506101011082,SU 83285 33462,483285,133462,"River Wey aqueduct, Bramshott Court",,,,,,-1,0,-1,,,2798,67,1001784,,,1:10000,https://historicengland.org.uk/listing/the-list/list-entry/1001784,0.038650610101108,SU 83285 33462,483284.7045021,133462.20810307,79.1502220505056,386.263745489711,-0.8120686687953992,51.09442927057072
73,1001790,"Pickett Hamilton fort, Hilsea",,,1:1250,https://historicengland.org.uk/listing/the-list/list-entry/1001790,0.0049477542485426,SU 67325 03931,467325,103931,"Pickett Hamilton fort, Hilsea",,,,,,-1,0,-1,,,2834,73,1001790,,,1:1250,https://historicengland.org.uk/listing/the-list/list-entry/1001790,0.004947754248543,SU 67325 03931,467324.98000145,103931.16900062,25.0297363286658,49.4435899965315,-1.045394726077411,50.831007739894396
77,1001794,"Andover-Redbridge canal, Chalk Hill Lock, Horsebridge",,,1:2500,https://historicengland.org.uk/listing/the-list/list-entry/1001794,0.0584723312445422,SU 34701 30724,434701,130724,"Andover-Redbridge canal, Chalk Hill Lock, Horsebridge",,,,,,-1,0,-1,,,2839,77,1001794,,,1:2500,https://historicengland.org.uk/listing/the-list/list-entry/1001794,0.058472331244542,SU 34701 30724,434700.61250114,130723.68604596,118.239911277575,584.274265007005,-1.5060627654242988,51.07479873456367
78,1001795,Hydraulic pillbox on Middle Wallop Aerodrome,,,1:10000,https://historicengland.org.uk/listing/the-list/list-entry/1001795,0.0127412054665046,SU 29900 38700,429900,138700,Hydraulic pillbox on Middle Wallop Aerodrome,,,,,,-1,0,-1,,,2840,78,1001795,,,1:10000,https://historicengland.org.uk/listing/the-list/list-entry/1001795,0.012741205466505,SU 29900 38700,429900.36050033,138699.97614665,40.3686265053268,127.313266497091,-1.5739303952685246,51.146786758701786
79,1001796,"Iron Age hillfort in Ashley's Copse
See also WILTSHIRE 912",,,1:10000,https://historicengland.org.uk/listing/the-list/list-entry/1001796,3.80799914105539,SU 25978 34860,425978,134860,"Iron Age fort in Ashley's Copse
See also HAMPSHIRE 540",,,,,,-1,0,-1,,,640,2908,1004667,,,1:10000,https://historicengland.org.uk/listing/the-list/list-entry/1004667,3.80799914105539,SU 25978 34860,425978.20199966,134859.98849291,717.073637588317,38050.2612704674,-1.6302733719125735,51.11244872354407
79,1001796,"Iron Age hillfort in Ashley's Copse
See also WILTSHIRE 912",,,1:10000,https://historicengland.org.uk/listing/the-list/list-entry/1001796,3.80799914105539,SU 25978 34860,425978,134860,"Iron Age hillfort in Ashley's Copse
See also WILTSHIRE 912",,,,,,-1,0,-1,,,2833,79,1001796,,,1:10000,https://historicengland.org.uk/listing/the-list/list-entry/1001796,3.80799914105539,SU 25978 34860,425978.20199966,134859.98849291,717.073637588317,38050.2612704674,-1.6302733719125735,51.11244872354407
82,1001799,Roman corn drier S of Tin Wood,,,1:2500,https://historicengland.org.uk/listing/the-list/list-entry/1001799,0.0491718987197717,SU 39237 33210,439237,133210,Roman corn drier S of Tin Wood,,,,,,-1,0,-1,,,2832,82,1001799,,,1:2500,https://historicengland.org.uk/listing/the-list/list-entry/1001799,0.049171898719772,SU 39237 33210,439236.53500175,133209.62178495,89.9605795459721,491.345534999594,-1.4410508428735165,51.09686071285825
84,1001801,Enclosure in Preshaw Wood,,,1:10000,https://historicengland.org.uk/listing/the-list/list-entry/1001801,1.69165552087505,SU 57824 23019,457824,123019,Enclosure in Preshaw Wood,,,,,,-1,0,-1,,,2837,84,1001801,,,1:10000,https://historicengland.org.uk/listing/the-list/list-entry/1001801,1.69165552087505,SU 57824 23019,457824.13850212,123018.5405476,480.702053429711,16904.4575699694,-1.1772670972757666,51.00366163029325
85,1001802,Keyhole enclosure SE of Field Barn Farm,,,1:10000,https://historicengland.org.uk/listing/the-list/list-entry/1001802,1.35385817613723,SU 60102 54793,460102,154793,Keyhole enclosure SE of Field Barn Farm,,,,,,-1,0,-1,,,2838,85,1001802,,,1:10000,https://historicengland.org.uk/listing/the-list/list-entry/1001802,1.35385817613723,SU 60102 54793,460101.8125019,154792.89027797,466.976517607685,13528.9879610377,-1.1395105503292855,51.28910870347502
96,1001814,'Banjo type' native settlement,,,1:10000,https://historicengland.org.uk/listing/the-list/list-entry/1001814,6.30406226651631,SU 53223 34701,453223,134701,'Banjo type' native settlement,,,,,,-1,0,-1,,,2813,96,1001814,,,1:10000,https://historicengland.org.uk/listing/the-list/list-entry/1001814,6.30406226651631,SU 53223 34701,453222.98700142,134700.74591014,1002.25568302461,62994.7437895671,-1.241119670354752,51.10914187909666
97,1001815,Iron Age settlement,,,1:10000,https://historicengland.org.uk/listing/the-list/list-entry/1001815,4.49863945827839,SU 52315 37150,452315,137150,Iron Age settlement,,,,,,-1,0,-1,,,2814,97,1001815,,,1:10000,https://historicengland.org.uk/listing/the-list/list-entry/1001815,4.49863945827839,SU 52315 37150,452314.76450157,137149.73659198,842.396882562444,44953.5493380708,-1.2537341550988674,51.13124496372842
99,1001817,Anglo-Saxon cemetery in Worthy Park,2/23/1976 12:00:00 AM,,1:10000,https://historicengland.org.uk/listing/the-list/list-entry/1001817,0.676268114803131,SU 49949 32889,449949,132889,Anglo-Saxon cemetery in Worthy Park,,,,,,-1,0,-1,,,2810,99,1001817,1976/02/23,,1:10000,https://historicengland.org.uk/listing/the-list/list-entry/1001817,0.676268114803131,SU 49949 32889,449948.78700065,132889.4943939,323.06321141506,6757.70363601256,-1.2881329591759136,51.09314352238822
106,1001824,Enclosures S of the Cowleys,,,1:10000,https://historicengland.org.uk/listing/the-list/list-entry/1001824,12.6312029407331,SU 56687 40548,456687,140548,Enclosures S of the Cowleys,,,,,,-1,0,-1,,,2835,106,1001824,,,1:10000,https://historicengland.org.uk/listing/the-list/list-entry/1001824,12.6312029407331,SU 56687 40548,456687.0625019,140548.1317806,1439.92506954442,126221.284150884,-1.1907254496766049,51.16138156865663
108,1001826,Enclosure S of Marsh Court,,,1:10000,https://historicengland.org.uk/listing/the-list/list-entry/1001826,8.85537198722009,SU 35668 33254,435668,133254,Enclosure S of Marsh Court,,,,,,-1,0,-1,,,2788,108,1001826,,,1:10000,https://historicengland.org.uk/listing/the-list/list-entry/1001826,8.85537198722009,SU 35668 33254,435668.40650177,133254.16929101,1224.99518330538,88485.882330012,-1.4920116133414731,51.09748876311604
110,1001828,Round barrow on Rabbit Warren,,,1:10000,https://historicengland.org.uk/listing/the-list/list-entry/1001828,0.107285613602569,SU 44156 56749,444156,156749,Round barrow on Rabbit Warren,,,,,,-1,0,-1,,,2789,110,1001828,,,1:10000,https://historicengland.org.uk/listing/the-list/list-entry/1001828,0.107285613602569,SU 44156 56749,444155.88950157,156749.18693926,125.74367563454,1072.05200049731,-1.367920161486633,51.308152048831346
116,1001834,White Barrow,,,1:10000,https://historicengland.org.uk/listing/the-list/list-entry/1001834,0.157044620222817,SU 58808 51195,458808,151195,White Barrow,,,,,,-1,0,-1,,,2787,116,1001834,,,1:10000,https://historicengland.org.uk/listing/the-list/list-entry/1001834,0.157044620222817,SU 58808 51195,458807.97450065,151194.571076,141.331485230562,1569.32742199631,-1.1586554318039912,51.256894484888385
127,1001845,Earthwork in Great Park,,,1:10000,https://historicengland.org.uk/listing/the-list/list-entry/1001845,1.02141697101047,SU 69489 44596,469489,144596,Earthwork in Great Park,,,,,,-1,0,-1,,,2827,127,1001845,,,1:10000,https://historicengland.org.uk/listing/the-list/list-entry/1001845,1.02141697101048,SU 69489 44596,469488.98500061,144595.95170862,380.934679885632,10207.2369829916,-1.006895255699908,51.19636635045122
128,1001846,Earthworks in Danegrove Copse,,,1:10000,https://historicengland.org.uk/listing/the-list/list-entry/1001846,0.166551406107475,SU 44147 54497,444147,154497,Earthworks in Danegrove Copse,,,,,,-1,0,-1,,,2825,128,1001846,,,1:10000,https://historicengland.org.uk/listing/the-list/list-entry/1001846,0.166551406107475,SU 44147 54497,444146.81800079,154497.38300968,146.063960674904,1664.26578351265,-1.3683271087275384,51.287904497888064
138,1001857,Roman site NW of Woodgarston Farm,,,1:10000,https://historicengland.org.uk/listing/the-list/list-entry/1001857,0.188474372514957,SU 57972 55817,457972,155817,Roman site NW of Woodgarston Farm,,,,,,-1,0,-1,,,2826,138,1001857,,,1:10000,https://historicengland.org.uk/listing/the-list/list-entry/1001857,0.188474372514957,SU 57972 55817,457971.84049987,155817.32153229,182.27016838945,1883.39648451066,-1.169885684795338,51.29853570837147
139,1001858,Round barrow S of Down Farm,,,1:10000,https://historicengland.org.uk/listing/the-list/list-entry/1001858,0.0867653171914076,SU 61296 40040,461296,140040,Round barrow S of Down Farm,,,,,,-1,0,-1,,,2830,139,1001858,,,1:10000,https://historicengland.org.uk/listing/the-list/list-entry/1001858,0.086765317191408,SU 61296 40040,461296.2500019,140039.89850044,104.431424165813,867.041447005554,-1.1249086005875029,51.15633981756557
160,1001879,"Roman villa at Lodge Farm, North Warnborough",,,1:10000,https://historicengland.org.uk/listing/the-list/list-entry/1001879,0.38609854135009,SU 73611 52639,473611,152639,"Roman villa at Lodge Farm, North Warnborough",,,,,,-1,0,-1,,,2880,160,1001879,,,1:10000,https://historicengland.org.uk/listing/the-list/list-entry/1001879,0.38609854135009,SU 73611 52639,473610.69950103,152638.93381791,279.839144762938,3858.42116750401,-0.9462639667326455,51.268160451276344
161,1001880,Bramdean Roman villa,,,1:10000,https://historicengland.org.uk/listing/the-list/list-entry/1001880,0.841502157416066,SU 62738 28135,462738,128135,Bramdean Roman villa,,,,,,-1,0,-1,,,2881,161,1001880,,,1:10000,https://historicengland.org.uk/listing/the-list/list-entry/1001880,0.841502157416066,SU 62738 28135,462737.66450119,128134.5940761,374.615726284327,8409.1256585074,-1.1063577483202152,51.04914617985766
182,1001901,Roman house 1/2 mile (810m) E of Finkley Farm,,,1:10000,https://historicengland.org.uk/listing/the-list/list-entry/1001901,2.12422968689459,SU 39836 48348,439836,148348,Roman house 1/2 mile (810m) E of Finkley Farm,,,,,,-1,0,-1,,,2842,182,1001901,,,1:10000,https://historicengland.org.uk/listing/the-list/list-entry/1001901,2.12422968689459,SU 39836 48348,439835.93900108,148348.32567064,623.245212512149,21226.1873024734,-1.4308252380633584,51.23293344907614
184,1001903,Corhampton British village on Corhampton Down,,,1:10000,https://historicengland.org.uk/listing/the-list/list-entry/1001903,0.508046357298439,SU 57410 20173,457410,120173,Corhampton British village on Corhampton Down,,,,,,-1,0,-1,,,2846,184,1001903,,,1:10000,https://historicengland.org.uk/listing/the-list/list-entry/1001903,0.508046357298439,SU 57410 20173,457409.66550064,120172.70396875,275.277761613182,5076.82453446299,-1.1836156961984456,50.978113666271994
186,1001905,"Roman villa at Stroud, site near Petersfield",,,1:10000,https://historicengland.org.uk/listing/the-list/list-entry/1001905,0.726900889411737,SU 72516 23574,472516,123574,"Roman villa at Stroud, site near Petersfield",,,,,,-1,0,-1,,,2844,186,1001905,,,1:10000,https://historicengland.org.uk/listing/the-list/list-entry/1001905,0.726900889411737,SU 72516 23574,472515.65150261,123574.24845249,333.266726375826,7264.15291342226,-0.9677987694980599,51.0069901167813
190,1001909,"St Peter's Church, Lainston House",3/25/1949 12:00:00 AM,,1:10000,https://historicengland.org.uk/listing/the-list/list-entry/1001909,0.115876923205057,SU 44242 31591,444242,131591,"St Peter's Church, Lainston House",,,,,,-1,0,-1,,,2843,190,1001909,1949/03/25,,1:10000,https://historicengland.org.uk/listing/the-list/list-entry/1001909,0.115876923205057,SU 44242 31591,444242.28250122,131590.52925986,126.167508251206,1157.90110799863,-1.3697787509654327,51.081940042260754
198,1001917,Old Pound Copse earthwork,2/1/1951 12:00:00 AM,,1:10000,https://historicengland.org.uk/listing/the-list/list-entry/1001917,1.50116807638191,SU 39632 44650,439632,144650,Old Pound Copse earthwork,,,,,,-1,0,-1,,,2875,198,1001917,1951/02/01,,1:10000,https://historicengland.org.uk/listing/the-list/list-entry/1001917,1.50116807638191,SU 39632 44650,439632.49300193,144650.22328444,464.250850887038,15000.2907439397,-1.4341544503920869,51.19969718283272
199,1001918,Ellisfield camp W of Upper Common,9/17/1936 12:00:00 AM,,1:10000,https://historicengland.org.uk/listing/the-list/list-entry/1001918,2.51886882990173,SU 62960 45334,462960,145334,Ellisfield camp W of Upper Common,,,,,,-1,0,-1,,,2876,199,1001918,1936/09/17,,1:10000,https://historicengland.org.uk/listing/the-list/list-entry/1001918,2.51886882990173,SU 62960 45334,462959.64050102,145334.2644462,654.246637380971,25171.0572999737,-1.1001922682379852,51.20375702926124
200,1001919,Barley Pound earthworks,,,1:2500,https://historicengland.org.uk/listing/the-list/list-entry/1001919,2.91112888064578,SU 79640 46694,479640,146694,Barley Pound earthworks,,,,,,-1,0,-1,,,2852,200,1001919,,,1:2500,https://historicengland.org.uk/listing/the-list/list-entry/1001919,2.91112888064578,SU 79640 46694,479639.59200096,146694.05112012,647.371331242322,29092.6119695208,-0.8611838922914851,51.21390501031372
201,1001920,Medstead camp in grounds of manor house,,,1:10000,https://historicengland.org.uk/listing/the-list/list-entry/1001920,0.592034509705691,SU 65672 37391,465672,137391,Medstead camp in grounds of manor house,,,,,,-1,0,-1,,,2849,201,1001920,,,1:10000,https://historicengland.org.uk/listing/the-list/list-entry/1001920,0.592034509705691,SU 65672 37391,465672.27950096,137390.59899773,480.928481847755,5916.25180499981,-1.0628271789403092,51.13203851350504
203,1001922,Earthwork at Penley,,,1:10000,https://historicengland.org.uk/listing/the-list/list-entry/1001922,0.707476376313007,SU 77605 45865,477605,145865,Earthwork at Penley,,,,,,-1,0,-1,,,2851,203,1001922,,,1:10000,https://historicengland.org.uk/listing/the-list/list-entry/1001922,0.707476376313007,SU 77605 45865,477604.71899986,145864.90693325,331.855705295669,7070.1691755251,-0.8904919344630375,51.20673190624212
224,1001943,King John's House (or St John's House) in Warnford Park,,,1:10000,https://historicengland.org.uk/listing/the-list/list-entry/1001943,0.0929238641852563,SU 62296 22646,462296,122646,King John's House (or St John's House) in Warnford Park,,,,,,-1,0,-1,,,2794,224,1001943,,,1:10000,https://historicengland.org.uk/listing/the-list/list-entry/1001943,0.092923864185256,SU 62296 22646,462295.97100067,122646.48682764,125.222161561435,928.585974481984,-1.1136039451554833,50.99984193843085
225,1001944,Bulls Down camp,11/30/1925 12:00:00 AM,,1:10000,https://historicengland.org.uk/listing/the-list/list-entry/1001944,8.15654971224867,SU 67082 58382,467082,158382,Bulls Down camp,,,,,,-1,0,-1,,,2801,225,1001944,1925/11/30,,1:10000,https://historicengland.org.uk/listing/the-list/list-entry/1001944,8.15654971224867,SU 67082 58382,467082.21150207,158381.91451213,1026.05373171609,81509.4760439831,-1.03875668538589,51.32059759039406
226,1001945,"Tourner Bury, Hayling Island, South Hayling",,,1:10000,https://historicengland.org.uk/listing/the-list/list-entry/1001945,4.31906168958941,SZ 73161 99856,473161,99856,"Tourner Bury, Hayling Island, South Hayling",,,,,,-1,0,-1,,,2795,226,1001945,,,1:10000,https://historicengland.org.uk/listing/the-list/list-entry/1001945,4.31906168958941,SZ 73161 99856,473161.00650024,99855.98137178,768.753317280233,43161.8588240527,-0.963352196095058,50.79366211864353
227,1001946,Dunwood camp,,,1:10000,https://historicengland.org.uk/listing/the-list/list-entry/1001946,3.40395313776812,SU 31307 23061,431307,123061,Dunwood camp,,,,,,-1,0,-1,,,2793,227,1001946,,,1:10000,https://historicengland.org.uk/listing/the-list/list-entry/1001946,3.40395313776812,SU 31307 23061,431306.61300087,123060.98864633,709.251556614803,34013.2110760105,-1.5551662110909312,51.006088317070436
228,1001947,Toot Hill camp,,,1:10000,https://historicengland.org.uk/listing/the-list/list-entry/1001947,2.94099982345215,SU 38161 18637,438161,118637,Toot Hill camp,,,,,,-1,0,-1,,,2799,228,1001947,,,1:10000,https://historicengland.org.uk/listing/the-list/list-entry/1001947,2.94099982345215,SU 38161 18637,438160.58850097,118637.03154745,625.862192571673,29387.6013565056,-1.4579459661205967,50.96589584327715
231,1001950,Tidbury Ring,,,1:10000,https://historicengland.org.uk/listing/the-list/list-entry/1001950,7.31932042825716,SU 46270 42909,446270,142909,Tidbury Ring,,,,,,-1,0,-1,,,2802,231,1001950,,,1:10000,https://historicengland.org.uk/listing/the-list/list-entry/1001950,7.31932042825716,SU 46270 42909,446270.1970005,142909.37654385,977.394260302776,73138.6958345373,-1.3393791804777624,51.1835455240369
369,1002088,Broad Stone,6/12/1969 12:00:00 AM,,1:10000,https://historicengland.org.uk/listing/the-list/list-entry/1002088,0.0077311801856641,ST 57763 97246,357763,197246,Broad Stone,,,,,,-1,0,-1,,,2845,369,1002088,1969/06/12,,1:10000,https://historicengland.org.uk/listing/the-list/list-entry/1002088,0.007731180185664,ST 57763 97246,357763.16000175,197245.55800056,31.2866872289127,77.2535399963977,-2.6121807457589195,51.67238750576453
370,1002089,"Roman site 150yds (140m) E of Palace Cottage, Boughspring",,,1:10000,https://historicengland.org.uk/listing/the-list/list-entry/1002089,0.155543218390888,ST 55967 97370,355967,197370,"Roman site 150yds (140m) E of Palace Cottage, Boughspring",,,,,,-1,0,-1,,,2847,370,1002089,,,1:10000,https://historicengland.org.uk/listing/the-list/list-entry/1002089,0.155543218390888,ST 55967 97370,355967.35000038,197369.85092366,148.439227490226,1554.26595450348,-2.6381663836055402,51.67336406832576
373,1002092,Over earthwork,,,1:10000,https://historicengland.org.uk/listing/the-list/list-entry/1002092,1.6843756178238,SO 81364 19763,381364,219763,Over earthwork,,,,,,-1,0,-1,,,2864,373,1002092,,,1:10000,https://historicengland.org.uk/listing/the-list/list-entry/1002092,1.6843756178238,SO 81364 19763,381364.4300003,219762.93671169,540.111467191238,16830.4703519371,-2.2721132591229347,51.876120085455575
378,1002098,Ruardean Castle,,,1:10000,https://historicengland.org.uk/listing/the-list/list-entry/1002098,0.794078606167537,SO 61986 17821,361986,217821,Ruardean Castle,,,,,,-1,0,-1,,,2865,378,1002098,,,1:10000,https://historicengland.org.uk/listing/the-list/list-entry/1002098,0.794078606167537,SO 61986 17821,361985.77799988,217820.60416885,342.568455723394,7934.7367660161,-2.5533740480012295,51.85767236721754
386,1002106,Castle Godwyn,,,1:10000,https://historicengland.org.uk/listing/the-list/list-entry/1002106,0.553409740030298,SO 87134 11580,387134,211580,Castle Godwyn,,,,,,-1,0,-1,,,2854,386,1002106,,,1:10000,https://historicengland.org.uk/listing/the-list/list-entry/1002106,0.553409740030298,SO 87134 11580,387134.36650085,211580.48394957,269.340145692776,5529.70764253799,-2.187991466899271,51.8027117755638
390,1002110,Rowden Wood long barrow,,,1:10000,https://historicengland.org.uk/listing/the-list/list-entry/1002110,0.154249643700234,ST 77806 96918,377806,196918,Rowden Wood long barrow,,,,,,-1,0,-1,,,2858,390,1002110,,,1:10000,https://historicengland.org.uk/listing/the-list/list-entry/1002110,0.154249643700234,ST 77806 96918,377805.77400016,196917.58606995,158.484628843544,1541.28524550564,-2.322328384030643,51.67059200984856
391,1002111,Damery camp,,,1:10000,https://historicengland.org.uk/listing/the-list/list-entry/1002111,1.41697903267707,ST 70748 94405,370748,194405,Damery camp,,,,,,-1,0,-1,,,2859,391,1002111,,,1:10000,https://historicengland.org.uk/listing/the-list/list-entry/1002111,1.41697903267707,ST 70748 94405,370748.37200164,194404.53348315,461.681539057182,14158.7904635633,-2.4241748367394496,51.64767308080678
392,1002112,Blackquarries Hill long barrow,1/1/1900 12:00:00 AM,,1:10000,https://historicengland.org.uk/listing/the-list/list-entry/1002112,0.0871415749421188,ST 77517 93234,377517,193234,Blackquarries Hill long barrow,,,,,,-1,0,-1,,,2861,392,1002112,1900/01/01,,1:10000,https://historicengland.org.uk/listing/the-list/list-entry/1002112,0.087141574942119,ST 77517 93234,377516.51800155,193233.88092458,112.147712286406,870.731808501944,-2.326269212208628,51.63745732026733
393,1002113,Symonds Hall long barrow,1/1/1900 12:00:00 AM,,1:10000,https://historicengland.org.uk/listing/the-list/list-entry/1002113,0.241062362630914,ST 79706 95972,379706,195972,Symonds Hall long barrow,,,,,,-1,0,-1,,,2862,393,1002113,1900/01/01,,1:10000,https://historicengland.org.uk/listing/the-list/list-entry/1002113,0.241062362630914,ST 79706 95972,379706.00600052,195971.86921906,190.604755060661,2408.72589949194,-2.294799116434838,51.662158679492954
395,1002115,Tresham Farbarrow round barrows,,,1:10000,https://historicengland.org.uk/listing/the-list/list-entry/1002115,0.155148476233287,ST 79301 90181,379301,190181,Tresham Farbarrow round barrows,,,,,,-1,0,-1,,,2857,395,1002115,,,1:10000,https://historicengland.org.uk/listing/the-list/list-entry/1002115,0.155148476233287,ST 79301 90181,379300.90049934,190181.45932686,154.073490671836,1550.26406001337,-2.3003099536539784,51.61007619155024
405,1002125,Round barrow W of Lawford Hall,,,1:1250,https://historicengland.org.uk/listing/the-list/list-entry/1002125,0.0348237550271805,TM0818131876,608181,231876,Round barrow W of Lawford Hall,,,,,,-1,0,-1,,,2867,405,1002125,,,1:1250,https://historicengland.org.uk/listing/the-list/list-entry/1002125,0.03482375502718,TM0818131876,608180.550001144,231876.303751155,66.9938287198558,348.33049999744,1.0276984249867562,51.946408685247064
418,1002138,Well house and donkey wheel at Gosfield Hall,,,1:10000,https://historicengland.org.uk/listing/the-list/list-entry/1002138,0.0044528498285827,TL 77482 29790,577482,229790,Well house and donkey wheel at Gosfield Hall,,,,,,-1,0,-1,,,2918,418,1002138,,,1:10000,https://historicengland.org.uk/listing/the-list/list-entry/1002138,0.004452849828583,TL 77482 29790,577482.01250076,229789.96316549,26.755216263775,44.5274240052189,0.5804732388079874,51.93830716702139
421,1002141,Monument in Colne Park,,,1:10000,https://historicengland.org.uk/listing/the-list/list-entry/1002141,0.0070143158280198,TL 87166 30501,587166,230501,Monument in Colne Park,,,,,,-1,0,-1,,,2911,421,1002141,,,1:10000,https://historicengland.org.uk/listing/the-list/list-entry/1002141,0.00701431582802,TL 87166 30501,587166.34049987,230500.54399329,29.902637525972,70.1475595020214,0.7215685472279462,51.94152233895718
423,1002143,Medieval tile kilns S of Church End,,,1:10000,https://historicengland.org.uk/listing/the-list/list-entry/1002143,1.80032870453102,TL 66401 23222,566401,223222,Medieval tile kilns S of Church End,,,,,,-1,0,-1,,,2912,423,1002143,,,1:10000,https://historicengland.org.uk/listing/the-list/list-entry/1002143,1.80032870453103,TL 66401 23222,566400.51850128,223221.80325008,556.355516597593,18001.1727380009,0.416265120298327,51.882729203990806
432,1002152,Tumulus NW of East Donyland Hall,,,1:10000,https://historicengland.org.uk/listing/the-list/list-entry/1002152,0.0316975725205955,TM 02588 21172,602588,221172,Tumulus NW of East Donyland Hall,,,,,,-1,0,-1,,,2916,432,1002152,,,1:10000,https://historicengland.org.uk/listing/the-list/list-entry/1002152,0.031697572520595,TM 02588 21172,602588.12900161,221172.39814594,63.5465420687405,317.042466009124,0.9401505480075193,51.852360950662636
437,1002157,Settlement site NNE of Lawford House,,,1:10000,https://historicengland.org.uk/listing/the-list/list-entry/1002157,0.0693384398871593,TM 08870 30898,608870,230898,Settlement site NNE of Lawford House,,,,,,-1,0,-1,,,2888,437,1002157,,,1:10000,https://historicengland.org.uk/listing/the-list/list-entry/1002157,0.069338439887159,TM 08870 30898,608869.63900184,230898.36800194,93.4082413383782,693.574355995598,1.0371148905366372,51.937370018265206
438,1002158,Obelisk 325m NW of Cobbin Pond,,,1:10000,https://historicengland.org.uk/listing/the-list/list-entry/1002158,0.013946569810857,TL 40566 02027,540566,202027,Obelisk 325m NW of Cobbin Pond,,,,,,-1,0,-1,,,2891,438,1002158,,,1:10000,https://historicengland.org.uk/listing/the-list/list-entry/1002158,0.013946569810857,TL 40566 02027,540566.47949982,202027.46733694,41.8853146237149,139.422179998653,0.032602084844431695,51.699391486315875
447,1002167,"The Temple, Temple Hill, Warlies Park",,,1:10000,https://historicengland.org.uk/listing/the-list/list-entry/1002167,0.0146364541298625,TL 41686 01332,541686,201332,"The Temple, Temple Hill, Warlies Park",,,,,,-1,0,-1,,,2915,447,1002167,,,1:10000,https://historicengland.org.uk/listing/the-list/list-entry/1002167,0.014636454129863,TL 41686 01332,541685.65649986,201332.05700111,42.9132858328689,146.319979997384,0.04851540971683229,51.69286525463635
450,1002170,Moated site in Fortification Wood,,,1:10000,https://historicengland.org.uk/listing/the-list/list-entry/1002170,1.38834476611476,TQ 54962 98317,554962,198317,Moated site in Fortification Wood,,,,,,-1,0,-1,,,2913,450,1002170,,,1:10000,https://historicengland.org.uk/listing/the-list/list-entry/1002170,1.38834476611476,TQ 54962 98317,554962.22599983,198317.31593003,462.511628600713,13880.565002946,0.23910458176092178,51.662273103603916
482,1002202,"Stumbletts Furnace, 360m south-east of Twyford House",4/25/1977 12:00:00 AM,,1:10000,https://historicengland.org.uk/listing/the-list/list-entry/1002202,0.646957404238955,TQ 39939 30631,539939,130631,"Stumbletts Furnace, 360m south-east of Twyford House",,,,,,-1,0,-1,,,2906,482,1002202,1977/04/25,,1:10000,https://historicengland.org.uk/listing/the-list/list-entry/1002202,0.646957404238955,TQ 39939 30631,539939.30950164,130631.31590029,342.224517730554,6467.52640655082,-0.004564225157208615,51.057975190419
486,1002206,Medieval enclosure W of Newmarket Plantation,10/17/1978 12:00:00 AM,,1:10000,https://historicengland.org.uk/listing/the-list/list-entry/1002206,1.60170308383054,TQ 36533 08000,536533,108000,Medieval enclosure W of Newmarket Plantation,,,,,,-1,0,-1,,,2896,486,1002206,1978/10/17,,1:10000,https://historicengland.org.uk/listing/the-list/list-entry/1002206,1.60170308383054,TQ 36533 08000,536533.31399917,108000.15225571,467.974573418874,16011.5920749784,-0.061616643361254726,50.8554066832669
489,1002209,Woolbridge furnace,,,1:10000,https://historicengland.org.uk/listing/the-list/list-entry/1002209,0.698409796311037,TQ 57133 26545,557133,126545,Woolbridge furnace,,,,,,-1,0,-1,,,2895,489,1002209,,,1:10000,https://historicengland.org.uk/listing/the-list/list-entry/1002209,0.698409796311037,TQ 57133 26545,557133.30450058,126544.69713928,414.950520521886,6982.76411807186,0.23881945258299825,51.016817626434516
492,1002212,Ring ditch and rectangular enclosure SE of Mockbeggar,4/24/1979 12:00:00 AM,,1:10000,https://historicengland.org.uk/listing/the-list/list-entry/1002212,0.651396073748834,TQ 92100 22631,592100,122631,Ring ditch and rectangular enclosure SE of Mockbeggar,,,,,,-1,0,-1,,,2893,492,1002212,1979/04/24,,1:10000,https://historicengland.org.uk/listing/the-list/list-entry/1002212,0.651396073748834,TQ 92100 22631,592100.30200195,122630.63564343,329.559588036862,6514.67092901645,0.7347116834575455,50.97105471163413
501,1002221,Iron plat furnace,,,1:10000,https://historicengland.org.uk/listing/the-list/list-entry/1002221,0.658681025825972,TQ 49854 24182,549854,124182,Iron plat furnace,,,,,,-1,0,-1,,,2904,501,1002221,,,1:10000,https://historicengland.org.uk/listing/the-list/list-entry/1002221,0.658681025825972,TQ 49854 24182,549853.78849983,124182.05018336,394.657327505334,6585.19086447389,0.1341491387208262,50.997525131353555
503,1002223,"Pippingford furnace and ironworks, 885m south-west of New Lodge Farm",4/25/1975 12:00:00 AM,,1:2500,https://historicengland.org.uk/listing/the-list/list-entry/1002223,0.644761075922306,TQ 44997 31562,544997,131562,"Pippingford furnace and ironworks, 885m south-west of New Lodge Farm",,,,,,-1,0,-1,,,2905,503,1002223,1975/04/25,,1:2500,https://historicengland.org.uk/listing/the-list/list-entry/1002223,0.644761075922306,TQ 44997 31562,544997.27150154,131562.3901789,387.253204045831,6445.79849299597,0.06793255023452703,51.065087588041806
505,1002225,Pillow mound and earthwork in Northbank Wood,3/17/1976 12:00:00 AM,,1:10000,https://historicengland.org.uk/listing/the-list/list-entry/1002225,0.524398809856669,TQ 43800 32070,543800,132070,Pillow mound and earthwork in Northbank Wood,,,,,,-1,0,-1,,,2897,505,1002225,1976/03/17,,1:10000,https://historicengland.org.uk/listing/the-list/list-entry/1002225,0.524398809856669,TQ 43800 32070,543800.41450119,132070.13848837,353.790494736699,5242.46986199986,0.05106326291838721,51.06995349439082
508,1002228,"Romano-British bloomery in Pippingford Park, 775m north-east of Pippingford House",4/30/1976 12:00:00 AM,,1:10000,https://historicengland.org.uk/listing/the-list/list-entry/1002228,0.0961781614346567,TQ 44590 31249,544590,131249,"Romano-British bloomery in Pippingford Park, 775m north-east of Pippingford House",,,,,,-1,0,-1,,,2900,508,1002228,1976/04/30,,1:10000,https://historicengland.org.uk/listing/the-list/list-entry/1002228,0.096178161434657,TQ 44590 31249,544589.96850204,131248.89883393,126.538462745738,961.508496005176,0.06200312927035135,51.06237744046721
510,1002230,Iron minepits in Tugmore Shaw,7/26/1976 12:00:00 AM,,1:10000,https://historicengland.org.uk/listing/the-list/list-entry/1002230,2.83665676129272,TQ 45848 37208,545848,137208,Iron minepits in Tugmore Shaw,,,,,,-1,0,-1,,,2930,510,1002230,1976/07/26,,1:10000,https://historicengland.org.uk/listing/the-list/list-entry/1002230,2.83665676129272,TQ 45848 37208,545848.20600128,137208.49361047,838.252260360303,28358.7689820388,0.08234677113059044,51.11560806013177
513,1002233,Pounsley iron furnace,,,1:10000,https://historicengland.org.uk/listing/the-list/list-entry/1002233,0.648393253764187,TQ 52899 21908,552899,121908,Pounsley iron furnace,,,,,,-1,0,-1,,,2898,513,1002233,,,1:10000,https://historicengland.org.uk/listing/the-list/list-entry/1002233,0.648393253764187,TQ 52899 21908,552898.98950195,121908.13626053,399.036187594191,6482.48538050619,0.1765532095338066,50.97629117279217
514,1002234,Pillow mounds on Ashdown Forest,8/1/1975 12:00:00 AM,,1:2500,https://historicengland.org.uk/listing/the-list/list-entry/1002234,1.48525298209618,"TQ 45237 31223, TQ 45257 31109, TQ 45255 31053, TQ 45380 31005, TQ 45276 30951, TQ 45369 30922, TQ 45511 30814",545237,131223,Pillow mounds on Ashdown Forest,,,,,,-1,0,-1,,,2894,514,1002234,1975/08/01,,1:2500,https://historicengland.org.uk/listing/the-list/list-entry/1002234,1.48525298209619,"TQ 45237 31223, TQ 45257 31109, TQ 45255 31053, TQ 45380 31005, TQ 45276 30951, TQ 45369 30922, TQ 45511 30814","545236.913002014, 545236.913002014, 545236.913002014, 545236.913002014, 545236.913002014, 545236.913002014, 545236.913002014","131222.559434989, 131222.559434989, 131222.559434989, 131222.559434989, 131222.559434989, 131222.559434989, 131222.559434989",2383.86015873647,14848.3928417848,0.07121930657459428,51.061980629388216
519,1002239,Oldlands furnace,,,1:10000,https://historicengland.org.uk/listing/the-list/list-entry/1002239,0.372258915069241,TQ 47651 27103,547651,127103,Oldlands furnace,,,,,,-1,0,-1,,,2899,519,1002239,,,1:10000,https://historicengland.org.uk/listing/the-list/list-entry/1002239,0.372258915069241,TQ 47651 27103,547650.61950111,127102.86741391,278.099112706555,3721.614109007,0.10396528410525374,51.02434269305631
527,1002247,Three round barrows SW of Loose Plantation,9/10/1968 12:00:00 AM,,1:10000,https://historicengland.org.uk/listing/the-list/list-entry/1002247,0.0612012844492783,"TQ 49162 05297, TQ 49119 05340, TQ 49285 05175",549285,105175,Three round barrows SW of Loose Plantation,,,,,,-1,0,-1,,,2885,527,1002247,1968/09/10,,1:10000,https://historicengland.org.uk/listing/the-list/list-entry/1002247,0.061201284449278,"TQ 49162 05297, TQ 49119 05340, TQ 49285 05175","549285.08550071, 549285.08550071, 549285.08550071","105174.97500038, 105174.97500038, 105174.97500038",150.177667540651,611.859518499542,0.1182769168128534,50.82687219701921
528,1002248,Long barrow 200yds (180m) W of Winton chalk pit,6/13/1968 12:00:00 AM,,1:10000,https://historicengland.org.uk/listing/the-list/list-entry/1002248,0.0548531373637395,TQ 50989 03586,550989,103586,Long barrow 200yds (180m) W of Winton chalk pit,,,,,,-1,0,-1,,,2882,528,1002248,1968/06/13,,1:10000,https://historicengland.org.uk/listing/the-list/list-entry/1002248,0.05485313736374,TQ 50989 03586,550989.30450058,103586.37271816,90.4687761399184,548.40115299618,0.1417999703464581,50.81215155274004
531,1002251,"Iron furnace site, W of Beckington Bridge",10/23/1973 12:00:00 AM,,1:10000,https://historicengland.org.uk/listing/the-list/list-entry/1002251,0.487412234845473,TQ 60023 18595,560023,118595,"Iron furnace site, W of Beckington Bridge",,,,,,-1,0,-1,,,2890,531,1002251,1973/10/23,,1:10000,https://historicengland.org.uk/listing/the-list/list-entry/1002251,0.487412234845473,TQ 60023 18595,560022.68700218,118594.62700825,365.418314716997,4873.30115996079,0.2764895336319542,50.94458936631654
532,1002252,Panningridge iron furnace site,6/25/1973 12:00:00 AM,,1:10000,https://historicengland.org.uk/listing/the-list/list-entry/1002252,0.180627746469313,TQ 68738 17518,568738,117518,Panningridge iron furnace site,,,,,,-1,0,-1,,,2892,532,1002252,1973/06/25,,1:10000,https://historicengland.org.uk/listing/the-list/list-entry/1002252,0.180627746469313,TQ 68738 17518,568738.27449989,117518.18792207,231.670255489616,1806.10042449446,0.39993225750460326,50.93243040468881
535,1002255,Two round barrows 200yds (180m) W of Winton chalk pit,3/20/1967 12:00:00 AM,,1:10000,https://historicengland.org.uk/listing/the-list/list-entry/1002255,0.0229884845394885,"TQ 50872 03706, TQ 50806 03817",550806,103817,Two round barrows 200yds (180m) W of Winton chalk pit,,,,,,-1,0,-1,,,2883,535,1002255,1967/03/20,,1:10000,https://historicengland.org.uk/listing/the-list/list-entry/1002255,0.022988484539489,"TQ 50872 03706, TQ 50806 03817","550806.18650055, 550806.18650055","103817.45655302, 103817.45655302",77.5233019094006,229.830021498435,0.1392992181201968,50.81427501091448
543,1002263,Round barrow NW of Mill Hill,7/15/1966 12:00:00 AM,,1:10000,https://historicengland.org.uk/listing/the-list/list-entry/1002263,0.0164000034358344,TQ4037105710,540371,105710,Round barrow NW of Mill Hill,,,,,,-1,0,-1,,,2902,543,1002263,1966/07/15,,1:10000,https://historicengland.org.uk/listing/the-list/list-entry/1002263,0.016400003435834,TQ4037105710,540371.048400879,105709.849851608,45.9323337464254,163.948732565323,-0.008000890697104055,50.83390840543482
544,1002264,Round barrow S of Breaky Bottom,7/15/1966 12:00:00 AM,,1:10000,https://historicengland.org.uk/listing/the-list/list-entry/1002264,0.0412000046468332,TQ 40153 04908,540153,104908,Round barrow S of Breaky Bottom,,,,,,-1,0,-1,,,2903,544,1002264,1966/07/15,,1:10000,https://historicengland.org.uk/listing/the-list/list-entry/1002264,0.041200004646833,TQ 40153 04908,540152.9375019,104907.94550132,71.9828003440351,411.870297495503,-0.011400989888541808,50.826753551697344
545,1002265,Heathy Brow round barrows,1/16/1967 12:00:00 AM,,1:10000,https://historicengland.org.uk/listing/the-list/list-entry/1002265,0.0542705053652184,TQ3962505234,539625,105234,Heathy Brow round barrows,,,,,,-1,0,-1,,,2901,545,1002265,1967/01/16,,1:10000,https://historicengland.org.uk/listing/the-list/list-entry/1002265,0.054270505365218,TQ3962505234,539624.797901154,105233.548240908,117.496965052595,542.532516041254,-0.018768983937232003,50.829810823821276
562,1002282,Round barrow on Cliffe Hill,12/27/1962 12:00:00 AM,,1:10000,https://historicengland.org.uk/listing/the-list/list-entry/1002282,0.0375556841694131,TQ 43405 10700,543405,110700,Round barrow on Cliffe Hill,,,,,,-1,0,-1,,,3075,562,1002282,1962/12/27,,1:10000,https://historicengland.org.uk/listing/the-list/list-entry/1002282,0.037555684169413,TQ 43405 10700,543404.8295021,110699.95650558,68.9728235684762,375.447113494147,0.037008415173459555,50.87800931277588
578,1002298,Herstmonceux Castle,,,1:10000,https://historicengland.org.uk/listing/the-list/list-entry/1002298,3.54323750276465,TQ 64709 10455,564709,110455,Herstmonceux Castle,,,,,,-1,0,-1,,,3076,578,1002298,,,1:10000,https://historicengland.org.uk/listing/the-list/list-entry/1002298,3.54323750276465,TQ 64709 10455,564709.09400177,110455.07480822,897.862325099747,35427.7237259781,0.339463898455265,50.870133933793625
590,1002310,Middle Brow earthwork,2/24/1933 12:00:00 AM,,1:10000,https://historicengland.org.uk/listing/the-list/list-entry/1002310,0.447636546332296,TQ 33619 12213,533619,112213,Middle Brow earthwork,,,,,,-1,0,-1,,,3071,590,1002310,1933/02/24,,1:10000,https://historicengland.org.uk/listing/the-list/list-entry/1002310,0.447636546332296,TQ 33619 12213,533619.0020008,112213.47579365,328.140176116291,4474.75886449434,-0.10145386544484698,50.89395097448297
593,1002313,Enclosure NW of Old Park House,,,1:10000,https://historicengland.org.uk/listing/the-list/list-entry/1002313,4.46721336585795,NY 92548 38433,392548,538433,Enclosure NW of Old Park House,,,,,,-1,0,-1,,,3073,593,1002313,,,1:10000,https://historicengland.org.uk/listing/the-list/list-entry/1002313,4.46721336585795,NY 92548 38433,392547.956501,538433.34381637,818.428419478736,44636.5783224036,-2.117267825130355,54.74080764112132
605,1002325,Harbour House Chapel,,,1:10000,https://historicengland.org.uk/listing/the-list/list-entry/1002325,0.0067416603459946,NZ 28232 48317,428232,548317,Harbour House Chapel,,,,,,-1,0,-1,,,3179,605,1002325,,,1:10000,https://historicengland.org.uk/listing/the-list/list-entry/1002325,0.006741660345995,NZ 28232 48317,428231.94750023,548317.0224524,33.8964810086868,67.3641539908518,-1.5620630852428403,54.8288980126646
606,1002326,Camp at High Northgate,,,1:2500,https://historicengland.org.uk/listing/the-list/list-entry/1002326,1.31834543176679,NY9377240088,393772,540088,Camp at High Northgate,,,,,,-1,0,-1,,,3177,606,1002326,,,1:2500,https://historicengland.org.uk/listing/the-list/list-entry/1002326,1.31834543176679,NY9377240088,393772.008501053,540088.314455793,413.468477520884,13172.9535010875,-2.098292479966181,54.75569725860998
607,1002327,Smotherlaw round barrow,,,1:10000,https://historicengland.org.uk/listing/the-list/list-entry/1002327,0.0905312924756531,NZ 21880 16019,421880,516019,Smotherlaw round barrow,,,,,,-1,0,-1,,,3178,607,1002327,,,1:10000,https://historicengland.org.uk/listing/the-list/list-entry/1002327,0.090531292475653,NZ 21880 16019,421880.22450065,516018.70150185,106.669693335226,904.601741995897,-1.6633453173015176,54.538969212850795
619,1002340,Pre-Conquest and post-Conquest church and graveyard and medieval and post-medieval manors at Sockburn,12/12/1950 11:23:23 PM,11/1/2023 2:35:25 PM,1:2500,https://historicengland.org.uk/listing/the-list/list-entry/1002340,3.84268449857002,NZ3498907101,435020,507030,Pre-Conquest and post-Conquest church and graveyard and medieval and post-medieval manors at Sockburn,,,,,,-1,0,-1,,,3174,619,1002340,1950/12/12,2023/11/01,1:2500,https://historicengland.org.uk/listing/the-list/list-entry/1002340,3.84268449857002,NZ3498907101,435019.670000076,507029.891434253,832.266767701859,38397.3639000023,-1.4613303627359224,54.45745436551735
621,1002342,Friarside Chapel,,,1:10000,https://historicengland.org.uk/listing/the-list/list-entry/1002342,0.0306023275143898,NZ 16246 57865,416246,557865,Friarside Chapel,,,,,,-1,0,-1,,,3175,621,1002342,,,1:10000,https://historicengland.org.uk/listing/the-list/list-entry/1002342,0.03060232751439,NZ 16246 57865,416245.72150039,557865.38622207,72.2953904673211,305.781237997319,-1.7481017947900865,54.915228024469194
636,1002357,'The Castles' (camp),,,1:10000,https://historicengland.org.uk/listing/the-list/list-entry/1002357,2.31477516443449,NZ 10345 33073,410345,533073,'The Castles' (camp),,,,,,-1,0,-1,,,3059,636,1002357,,,1:10000,https://historicengland.org.uk/listing/the-list/list-entry/1002357,2.31477516443449,NZ 10345 33073,410345.20950126,533073.08921478,580.085088957993,23129.357053534,-1.8410285762845011,54.69259263191913
638,1002359,Packhorse bridge,,,1:10000,https://historicengland.org.uk/listing/the-list/list-entry/1002359,0.0179791803865435,NZ 17911 18934,417911,518934,Packhorse bridge,,,,,,-1,0,-1,,,3061,638,1002359,,,1:10000,https://historicengland.org.uk/listing/the-list/list-entry/1002359,0.017979180386543,NZ 17911 18934,417911.48450088,518933.63185632,61.268649877775,179.649913997667,-1.7245111954029266,54.56532051591265
659,1002381,Boundary banks on Rye Hill and in Maldry Wood,,,1:10000,https://historicengland.org.uk/listing/the-list/list-entry/1002381,1.0740318429628,"SU 05424 10513, SU 04098 10361",405424,110513,Boundary banks on Rye Hill and in Maldry Wood,,,,,,-1,0,-1,,,3068,659,1002381,,,1:10000,https://historicengland.org.uk/listing/the-list/list-entry/1002381,1.0740318429628,"SU 05424 10513, SU 04098 10361","405424.00099945, 405424.00099945","110513.45774092, 110513.45774092",1537.88620959324,10731.762717569,-1.9242497089326307,50.8940740997558
663,1002385,Lazerton Farm causewayed road,,,1:10000,https://historicengland.org.uk/listing/the-list/list-entry/1002385,0.0831266086540871,ST 86320 10376,386320,110376,Lazerton Farm causewayed road,,,,,,-1,0,-1,,,3069,663,1002385,,,1:10000,https://historicengland.org.uk/listing/the-list/list-entry/1002385,0.083126608654087,ST 86320 10376,386319.52500152,110376.36946298,147.101080289303,830.607461994608,-2.195872708914507,50.892701783923755
664,1002387,Lime kiln 800ft (245m) NW of Langton Cross,3/10/1975 12:00:00 AM,,1:10000,https://historicengland.org.uk/listing/the-list/list-entry/1002387,0.019984707061557,SY 62186 82506,362186,82506,Lime kiln 800ft (245m) NW of Langton Cross,,,,,,-1,0,-1,,,3063,664,1002387,1975/03/10,,1:10000,https://historicengland.org.uk/listing/the-list/list-entry/1002387,0.019984707061557,SY 62186 82506,362185.55550003,82505.79020181,62.8886094539508,199.694719996246,-2.5361257464031577,50.641008373827155
679,1002405,Settlement E of Brow Copse,,,1:10000,https://historicengland.org.uk/listing/the-list/list-entry/1002405,0.371110441430826,SY 55371 94345,355371,94345,Settlement E of Brow Copse,,,,,,-1,0,-1,,,3084,679,1002405,,,1:10000,https://historicengland.org.uk/listing/the-list/list-entry/1002405,0.371110441430826,SY 55371 94345,355370.5550003,94345.12631835,251.145247591007,3708.32646449658,-2.6339313304415346,50.74698312718331
682,1002408,Tudor and 17th century farmstead and Romano-British settlement,,,1:10000,https://historicengland.org.uk/listing/the-list/list-entry/1002408,0.759960600867979,SY 77107 85694,377107,85694,Tudor and 17th century farmstead and Romano-British settlement,,,,,,-1,0,-1,,,3083,682,1002408,,,1:10000,https://historicengland.org.uk/listing/the-list/list-entry/1002408,0.759960600867979,SY 77107 85694,377106.70499992,85693.56643527,549.79407163694,7593.64480749491,-2.3253164716018904,50.670457077922464
696,1002423,Long barrow 400yds (360m) NW of Hill Barn,,,1:10000,https://historicengland.org.uk/listing/the-list/list-entry/1002423,0.142693087467595,SY 68848 85164,368848,85164,Long barrow 400yds (360m) NW of Hill Barn,,,,,,-1,0,-1,,,3064,696,1002423,,,1:10000,https://historicengland.org.uk/listing/the-list/list-entry/1002423,0.142693087467595,SY 68848 85164,368847.6155014,85163.79217722,200.172533468837,1425.82713050258,-2.442139758501429,50.66530602043272
698,1002425,Obelisk on Fir Hill,,,1:10000,https://historicengland.org.uk/listing/the-list/list-entry/1002425,0.0071429104107988,SY 80682 88486,380682,88486,Obelisk on Fir Hill,,,,,,-1,0,-1,,,3080,698,1002425,,,1:10000,https://historicengland.org.uk/listing/the-list/list-entry/1002425,0.007142910410799,SY 80682 88486,380682.27050018,88485.8993439,33.9207655227214,71.3728004950624,-2.2748748879104266,50.69569481700485
705,1002432,Roman buildings N of Witchampton Mill,5/16/1963 12:00:00 AM,,1:10000,https://historicengland.org.uk/listing/the-list/list-entry/1002432,0.722982564721372,ST 99052 06420,399052,106420,Roman buildings N of Witchampton Mill,,,,,,-1,0,-1,,,3077,705,1002432,1963/05/16,,1:10000,https://historicengland.org.uk/listing/the-list/list-entry/1002432,0.722982564721372,ST 99052 06420,399052.12549972,106419.54501086,326.945101703065,7224.06089905891,-2.014837587552087,50.85729151044938
708,1002435,Deserted village of Bardolfeston,9/21/1972 12:00:00 AM,,1:10000,https://historicengland.org.uk/listing/the-list/list-entry/1002435,6.90645212512032,SY 76648 94770,376648,94770,Deserted village of Bardolfeston,,,,,,-1,0,-1,,,3081,708,1002435,1972/09/21,,1:10000,https://historicengland.org.uk/listing/the-list/list-entry/1002435,6.90645212512032,SY 76648 94770,376648.08100128,94770.46846237,1276.93592544992,69010.3804580163,-2.3323886767342943,50.75205498747325
711,1002438,Ancient settlement SW of Incombe Wood,,,1:10000,https://historicengland.org.uk/listing/the-list/list-entry/1002438,0.921544500560363,"SY 68168 98770, SY 68208 98539",368208,98539,Ancient settlement SW of Incombe Wood,,,,,,-1,0,-1,,,3079,711,1002438,,,1:10000,https://historicengland.org.uk/listing/the-list/list-entry/1002438,0.921544500560363,"SY 68168 98770, SY 68208 98539","368207.86400032, 368207.86400032","98539.27176422, 98539.27176422",530.14274082825,9208.32582306472,-2.4523522514590743,50.7855444162373
715,1002442,Roman site N of Brenscombe Farm,,,1:10000,https://historicengland.org.uk/listing/the-list/list-entry/1002442,0.0519863166451399,SY 97889 82728,397889,82728,Roman site N of Brenscombe Farm,,,,,,-1,0,-1,,,3112,715,1002442,,,1:10000,https://historicengland.org.uk/listing/the-list/list-entry/1002442,0.05198631664514,SY 97889 82728,397889.31850242,82727.75709106,102.099436368552,519.449034525819,-2.0312173670677125,50.6442349982995
716,1002443,Roman building SE of Abbeycroft Coppice,,,1:10000,https://historicengland.org.uk/listing/the-list/list-entry/1002443,0.285330434585839,ST 96304 05874,396304,105874,Roman building SE of Abbeycroft Coppice,,,,,,-1,0,-1,,,3113,716,1002443,,,1:10000,https://historicengland.org.uk/listing/the-list/list-entry/1002443,0.285330434585839,ST 96304 05874,396303.69650077,105873.72524895,217.779535414007,2851.03013255001,-2.0538733637451765,50.85237004667104
719,1002446,Round barrow on Boat Knoll,11/14/1962 12:00:00 AM,,1:10000,https://historicengland.org.uk/listing/the-list/list-entry/1002446,0.0646783741597663,SY 86654 81286,386654,81286,Round barrow on Boat Knoll,,,,,,-1,0,-1,,,3116,719,1002446,1962/11/14,,1:10000,https://historicengland.org.uk/listing/the-list/list-entry/1002446,0.064678374159766,SY 86654 81286,386654.10300064,81285.90550041,90.1610173666896,646.270917991556,-2.1900598117151118,50.631116202571846
723,1002450,Three round barrows on Puddletown Down,2/22/1962 12:00:00 AM,,1:10000,https://historicengland.org.uk/listing/the-list/list-entry/1002450,0.169088356564838,"SY 75256 97459, SY 75339 97422, SY 75201 97493",375201,97493,Three round barrows on Puddletown Down,,,,,,-1,0,-1,,,3122,723,1002450,1962/02/22,,1:10000,https://historicengland.org.uk/listing/the-list/list-entry/1002450,0.169088356564838,"SY 75256 97459, SY 75339 97422, SY 75201 97493","375201.05299949, 375201.05299949, 375201.05299949","97492.82500267, 97492.82500267, 97492.82500267",253.424537878904,1689.56096850822,-2.3530844085284506,50.77648106978451
724,1002451,Round barrow on Magiston Hill,2/26/1962 12:00:00 AM,,1:10000,https://historicengland.org.uk/listing/the-list/list-entry/1002451,0.0995449316006129,SY 64074 96991,364074,96991,Round barrow on Magiston Hill,,,,,,-1,0,-1,,,3123,724,1002451,1962/02/26,,1:10000,https://historicengland.org.uk/listing/the-list/list-entry/1002451,0.099544931600613,SY 64074 96991,364074.15649986,96991.23050224,111.854617668493,994.687199005663,-2.5108410355603854,50.771382188644964
732,1002459,Two round barrows S of Cranborne Farm,,,1:10000,https://historicengland.org.uk/listing/the-list/list-entry/1002459,0.107932684441998,"SU 04066 14115, SU 04133 14339",404066,114115,Two round barrows S of Cranborne Farm,,,,,,-1,0,-1,,,3120,732,1002459,,,1:10000,https://historicengland.org.uk/listing/the-list/list-entry/1002459,0.107932684441998,"SU 04066 14115, SU 04133 14339","404066.07800102, 404066.07800102","114114.54250524, 114114.54250524",164.991875467122,1078.46673898592,-1.9435193111877065,50.92647551003233
733,1002460,Field system on Seldon Hill,7/11/1961 12:00:00 AM,,1:10000,https://historicengland.org.uk/listing/the-list/list-entry/1002460,8.60484280043765,"ST 65064 02590, ST 64904 02300",365064,102590,Field system on Seldon Hill,,,,,,-1,0,-1,,,3121,733,1002460,1961/07/11,,1:10000,https://historicengland.org.uk/listing/the-list/list-entry/1002460,8.60484280043765,"ST 65064 02590, ST 64904 02300","365064.2140007, 365064.2140007","102589.89504005, 102589.89504005",1785.83334768864,85982.4098502893,-2.4973365367383904,50.82179026248714
734,1002461,Round barrow on Ellston Hill,,,1:10000,https://historicengland.org.uk/listing/the-list/list-entry/1002461,0.0500611221081478,ST 63697 01747,363697,101747,Round barrow on Ellston Hill,,,,,,-1,0,-1,,,3134,734,1002461,,,1:10000,https://historicengland.org.uk/listing/the-list/list-entry/1002461,0.050061122108148,ST 63697 01747,363697.21100044,101747.49735033,81.9919589656703,500.228287004154,-2.5166586214680455,50.81412550686779
737,1002464,Round barrow on North Field Hill,5/4/1962 12:00:00 AM,,1:10000,https://historicengland.org.uk/listing/the-list/list-entry/1002464,0.0947085191004563,ST 62200 00739,362200,100739,Round barrow on North Field Hill,,,,,,-1,0,-1,,,3136,737,1002464,1962/05/04,,1:10000,https://historicengland.org.uk/listing/the-list/list-entry/1002464,0.094708519100456,ST 62200 00739,362199.76400184,100739.02100181,109.504031470467,946.363265503563,-2.537802178092501,50.80496536379137
739,1002466,"Earthworks SE of Park Wood, including round barrow",,,1:10000,https://historicengland.org.uk/listing/the-list/list-entry/1002466,4.46286715111995,ST 80388 04143,380388,104143,"Earthworks SE of Park Wood, including round barrow",,,,,,-1,0,-1,,,3126,739,1002466,,,1:10000,https://historicengland.org.uk/listing/the-list/list-entry/1002466,4.46286715111995,ST 80388 04143,380387.51750183,104142.90897046,1056.48179260318,44593.5115579738,-2.2798769205096843,50.83648037338756
741,1002468,Round barrow SW of Pigeon House Cottages,7/17/1961 12:00:00 AM,,1:10000,https://historicengland.org.uk/listing/the-list/list-entry/1002468,0.0734742183711394,SY 62735 92911,362735,92911,Round barrow SW of Pigeon House Cottages,,,,,,-1,0,-1,,,3125,741,1002468,1961/07/17,,1:10000,https://historicengland.org.uk/listing/the-list/list-entry/1002468,0.073474218371139,SY 62735 92911,362735.26600074,92910.76346257,96.0973944204615,734.181412000962,-2.529414629830121,50.73460912087144
742,1002469,Round barrows N of Pound Hill,8/3/1961 12:00:00 AM,,1:10000,https://historicengland.org.uk/listing/the-list/list-entry/1002469,0.139164193921688,"SY 62254 91614, SY 62630 91568",362254,91614,Round barrows N of Pound Hill,,,,,,-1,0,-1,,,3115,742,1002469,1961/08/03,,1:10000,https://historicengland.org.uk/listing/the-list/list-entry/1002469,0.139164193921688,"SY 62254 91614, SY 62630 91568","362254.43100166, 362254.43100166","91614.22200202, 91614.22200202",187.721639460218,1390.58059451303,-2.536096955196167,50.72291499787888
745,1002472,Bowl barrow 400m north west of Starveall Farm,1/20/1949 12:00:00 AM,,1:10000,https://historicengland.org.uk/listing/the-list/list-entry/1002472,0.0408582851831499,ST7963588194,379635,188194,Bowl barrow 400m north west of Starveall Farm,,,,,,-1,0,-1,,,3114,745,1002472,1949/01/20,,1:10000,https://historicengland.org.uk/listing/the-list/list-entry/1002472,0.04085828518315,ST7963588194,379634.863101959,188193.861715875,71.9199280742936,408.261200526306,-2.2953707030711596,51.59222295025063
746,1002473,Long barrow 335m north west of Starveall Farm,1/22/1949 12:00:00 AM,,1:10000,https://historicengland.org.uk/listing/the-list/list-entry/1002473,0.0544325519156367,ST7939787921,379397,187921,Long barrow 335m north west of Starveall Farm,,,,,,-1,0,-1,,,3131,746,1002473,1949/01/22,,1:10000,https://historicengland.org.uk/listing/the-list/list-entry/1002473,0.054432551915637,ST7939787921,379397.362951279,187921.009553379,89.7182585359731,543.897101474248,-2.2987901418317667,51.58975964990366
747,1002474,Bowl barrow 150m NNW of Abbey Farm,3/3/1953 12:00:00 AM,,1:10000,https://historicengland.org.uk/listing/the-list/list-entry/1002474,0.0299517112666497,ST 77098 59208,377098,159208,Bowl barrow 150m NNW of Abbey Farm,,,,,,-1,0,-1,,,3132,747,1002474,1953/03/03,,1:10000,https://historicengland.org.uk/listing/the-list/list-entry/1002474,0.02995171126665,ST 77098 59208,377097.95500183,159207.88500214,61.3576563282694,299.282160497157,-2.3301053666033265,51.33150109057782
749,1002476,Two bowl barrows 1130m east of Lower Lapdown Farm,1/13/1949 12:00:00 AM,,1:10000,https://historicengland.org.uk/listing/the-list/list-entry/1002476,0.23433756724822,ST7796278068,377962,178068,Two bowl barrows 1130m east of Lower Lapdown Farm,,,,,,-1,0,-1,,,3133,749,1002476,1949/01/13,,1:10000,https://historicengland.org.uk/listing/the-list/list-entry/1002476,0.23433756724822,ST7796278068,377962.095100403,178067.994208389,188.536640074024,2341.53282910429,-2.3188830004308043,51.50111422888888
751,1002478,Iron Age defended settlement 525m ENE of Elberton Manor,6/13/1968 12:00:00 AM,,1:2500,https://historicengland.org.uk/listing/the-list/list-entry/1002478,1.83597379332035,ST6080088396,360800,188394,Iron Age defended settlement 525m ENE of Elberton Manor,,,,,,-1,0,-1,,,3156,751,1002478,1968/06/13,,1:2500,https://historicengland.org.uk/listing/the-list/list-entry/1002478,1.83597379332035,ST6080088396,360799.88750267,188394.261195338,519.084329479722,18345.7917847726,-2.5672714781831343,51.59302155727356
761,1002488,Round barrow NE of Friar Waddon,,,1:10000,https://historicengland.org.uk/listing/the-list/list-entry/1002488,0.0791680874261724,SY 64574 86462,364574,86462,Round barrow NE of Friar Waddon,,,,,,-1,0,-1,,,3154,761,1002488,,,1:10000,https://historicengland.org.uk/listing/the-list/list-entry/1002488,0.079168087426172,SY 64574 86462,364573.89700126,86462.43499946,100.117430610674,791.074054017414,-2.5027360136919934,50.67673293261241
762,1002489,Round barrow on Shorn Hill,,,1:10000,https://historicengland.org.uk/listing/the-list/list-entry/1002489,0.0791690738501986,SY 63430 87305,363430,87305,Round barrow on Shorn Hill,,,,,,-1,0,-1,,,3155,762,1002489,,,1:10000,https://historicengland.org.uk/listing/the-list/list-entry/1002489,0.079169073850199,SY 63430 87305,363430.16900062,87304.85300254,100.118185180702,791.085517999684,-2.5190096409966123,50.684242504915446
763,1002490,Round barrow 1/4 mile (400m) N of Ridge Hill,,,1:10000,https://historicengland.org.uk/listing/the-list/list-entry/1002490,0.09188728069862,SY 65676 87030,365676,87030,Round barrow 1/4 mile (400m) N of Ridge Hill,,,,,,-1,0,-1,,,3141,763,1002490,,,1:10000,https://historicengland.org.uk/listing/the-list/list-entry/1002490,0.09188728069862,SY 65676 87030,365676.10650062,87029.84450149,107.465115768229,918.166770998964,-2.4871932692274012,50.68190687790698
769,1002496,Enclosure SW of Hingston Rocks,10/1/1954 12:00:00 AM,,1:10000,https://historicengland.org.uk/listing/the-list/list-entry/1002496,0.202038917877211,SX 76670 85686,276670,85686,Enclosure SW of Hingston Rocks,,,,,,-1,0,-1,,,3153,769,1002496,1954/10/01,,1:10000,https://historicengland.org.uk/listing/the-list/list-entry/1002496,0.202038917877211,SX 76670 85686,276669.67500114,85686.20069835,163.446585600808,2019.53301651403,-3.746158218267546,50.657753774378804
782,1002509,Leawood Plantation barrow,,,1:10000,https://historicengland.org.uk/listing/the-list/list-entry/1002509,0.041052775256965,SX 51481 88087,251481,88087,Leawood Plantation barrow,,,,,,-1,0,-1,,,3117,782,1002509,,,1:10000,https://historicengland.org.uk/listing/the-list/list-entry/1002509,0.041052775256965,SX 51481 88087,251481.06900024,88087.47091021,74.9046018334025,410.422808491102,-4.103246511856437,50.67344804009442
783,1002510,Smythapark hillfort,,,1:10000,https://historicengland.org.uk/listing/the-list/list-entry/1002510,8.04614721961025,SS 63589 38436,263589,138436,Smythapark hillfort,,,,,,-1,0,-1,,,3118,783,1002510,,,1:10000,https://historicengland.org.uk/listing/the-list/list-entry/1002510,8.04614721961026,SS 63589 38436,263588.99350166,138436.28171342,1068.47743546735,80434.0916199406,-3.950826776373216,51.12891135040389
786,1002513,The below ground remains of the former chapel at Membury Court,1/12/1959 12:00:00 AM,6/22/2015 4:01:50 PM,1:10000,https://historicengland.org.uk/listing/the-list/list-entry/1002513,0.009055521889299,ST 26411 03814,326411,103814,The below ground remains of the former chapel at Membury Court,,,,,,-1,0,-1,,,3119,786,1002513,1959/01/12,2015/06/22,1:10000,https://historicengland.org.uk/listing/the-list/list-entry/1002513,0.009055521889299,ST 26411 03814,326411.331501007,103814.279020168,42.8503128687562,90.4950629879665,-3.046247452140565,50.82916528664044
798,1002525,"Round Barrow on Dendles Waste (Kerbed cairn with cist in Dendles Waste, 920m SSW of Yealm Steps)",3/30/1960 12:00:00 AM,,1:10000,https://historicengland.org.uk/listing/the-list/list-entry/1002525,0.0250386843218396,SX 61533 62797,261533,62797,"Round Barrow on Dendles Waste (Kerbed cairn with cist in Dendles Waste, 920m SSW of Yealm Steps)",,,,,,-1,0,-1,,,3152,798,1002525,1960/03/30,,1:10000,https://historicengland.org.uk/listing/the-list/list-entry/1002525,0.02503868432184,SX 61533 62797,261533.0720005,62796.72100258,56.3165603175302,250.3051170008,-3.951664644209806,50.44862985068463
799,1002526,Medieval hut NW of Dendles Wood,3/30/1960 12:00:00 AM,,1:10000,https://historicengland.org.uk/listing/the-list/list-entry/1002526,0.0383856759401817,SX 61353 62615,261353,62615,Medieval hut NW of Dendles Wood,,,,,,-1,0,-1,,,3157,799,1002526,1960/03/30,,1:10000,https://historicengland.org.uk/listing/the-list/list-entry/1002526,0.038385675940182,SX 61353 62615,261352.8200016,62614.66618707,79.6513731988113,383.731946507144,-3.954130973395582,50.446951520295386
813,1002540,"Beacon Castle, South Down",7/18/1961 12:00:00 AM,,1:10000,https://historicengland.org.uk/listing/the-list/list-entry/1002540,0.57844233245888,SS 66459 46010,266459,146010,"Beacon Castle, South Down",,,,,,-1,0,-1,,,3196,813,1002540,1961/07/18,,1:10000,https://historicengland.org.uk/listing/the-list/list-entry/1002540,0.57844233245888,SS 66459 46010,266458.85499954,146009.86627909,273.3980728873,5782.34429149137,-3.912650614655878,51.1976555855109
814,1002541,Two cairns at Ausewell Rocks,1/19/1962 12:00:00 AM,,1:10000,https://historicengland.org.uk/listing/the-list/list-entry/1002541,0.103585514166794,"SX 73471 71743, SX 73539 71729",273471,71743,Two cairns at Ausewell Rocks,,,,,,-1,0,-1,,,3193,814,1002541,1962/01/19,,1:10000,https://historicengland.org.uk/listing/the-list/list-entry/1002541,0.103585514166794,"SX 73471 71743, SX 73539 71729","273470.85400199, 273470.85400199","71743.44180392, 71743.44180392",163.802134849178,1035.43631598609,-3.786639992021252,50.53174063134313
815,1002542,Slight univallate hillfort called The Castle,2/28/1963 12:00:00 AM,,1:10000,https://historicengland.org.uk/listing/the-list/list-entry/1002542,2.38818506954208,SS 48897 38297,248897,138297,Slight univallate hillfort called The Castle,,,,,,-1,0,-1,,,3195,815,1002542,1963/02/28,,1:10000,https://historicengland.org.uk/listing/the-list/list-entry/1002542,2.38818506954208,SS 48897 38297,248896.57050132,138297.06153539,568.371017279624,23876.1994739702,-4.160579457039782,51.12397236677865
818,1002545,Round barrow SE of Down Linhay,1/20/1964 12:00:00 AM,,1:10000,https://historicengland.org.uk/listing/the-list/list-entry/1002545,0.0573926403293234,SS 70793 48597,270793,148597,Round barrow SE of Down Linhay,,,,,,-1,0,-1,,,3167,818,1002545,1964/01/20,,1:10000,https://historicengland.org.uk/listing/the-list/list-entry/1002545,0.057392640329323,SS 70793 48597,270792.63350105,148596.87750053,85.7266348902501,573.704062000555,-3.851589284869433,51.22190286778522
819,1002546,Tithe barn at Glebe House,6/18/1965 12:00:00 AM,,1:10000,https://historicengland.org.uk/listing/the-list/list-entry/1002546,0.0149759836852791,SX 86855 94320,286855,94320,Tithe barn at Glebe House,,,,,,-1,0,-1,,,3194,819,1002546,1965/06/18,,1:10000,https://historicengland.org.uk/listing/the-list/list-entry/1002546,0.014975983685279,SX 86855 94320,286855.25550079,94319.65707464,55.0382757294254,149.687482492187,-3.604777486970986,50.73743611608265
827,1002554,Old church (remains of),1/17/1966 12:00:00 AM,,1:10000,https://historicengland.org.uk/listing/the-list/list-entry/1002554,0.0029992877428395,SY 07265 85749,307265,85749,Old church (remains of),,,,,,-1,0,-1,,,3169,827,1002554,1966/01/17,,1:10000,https://historicengland.org.uk/listing/the-list/list-entry/1002554,0.00299928774284,SY 07265 85749,307265.02900123,85749.27848171,36.3053336558177,29.9752975081865,-3.3134763110937415,50.664001986477004
828,1002555,"The Old Grotto, Dyer's Wood",11/1/1966 12:00:00 AM,,1:10000,https://historicengland.org.uk/listing/the-list/list-entry/1002555,0.0161877759517869,SX 81711 67393,281711,67393,"The Old Grotto, Dyer's Wood",,,,,,-1,0,-1,,,3201,828,1002555,1966/11/01,,1:10000,https://historicengland.org.uk/listing/the-list/list-entry/1002555,0.016187775951787,SX 81711 67393,281710.78350067,67393.13678132,51.9811125522434,161.804346506344,-3.669050871892941,50.49436356066956
830,1002557,Hut circles on Heatree Down,11/1/1967 12:00:00 AM,,1:10000,https://historicengland.org.uk/listing/the-list/list-entry/1002557,0.648295484801006,SX 72233 80738,272233,80738,Hut circles on Heatree Down,,,,,,-1,0,-1,,,3191,830,1002557,1967/11/01,,1:10000,https://historicengland.org.uk/listing/the-list/list-entry/1002557,0.648295484801006,SX 72233 80738,272233.31650161,80738.09817761,350.288344558799,6480.38499849642,-3.807190487350076,50.61232225051655
831,1002558,Roman villa 300yds (270m) SSW of Holcombe Farm,11/1/1967 12:00:00 AM,,1:10000,https://historicengland.org.uk/listing/the-list/list-entry/1002558,2.45562821820265,SY 31551 92840,331551,92840,Roman villa 300yds (270m) SSW of Holcombe Farm,,,,,,-1,0,-1,,,3203,831,1002558,1967/11/01,,1:10000,https://historicengland.org.uk/listing/the-list/list-entry/1002558,2.45562821820265,SY 31551 92840,331550.59200096,92839.75628329,637.370366490357,24539.5292715159,-2.9712302892196725,50.731126628909976
834,1002561,Round barrow 1350yds (1234m) N of Ridge Gate,,,1:10000,https://historicengland.org.uk/listing/the-list/list-entry/1002561,0.145529708256018,SS 66136 42285,266136,142285,Round barrow 1350yds (1234m) N of Ridge Gate,,,,,,-1,0,-1,,,3200,834,1002561,,,1:10000,https://historicengland.org.uk/listing/the-list/list-entry/1002561,0.145529708256018,SS 66136 42285,266136.00450134,142285.26627561,136.353129333026,1454.7770900115,-3.9158818702158884,51.16410366342845
836,1002563,Holwell Barrow round barrow,10/25/1968 12:00:00 AM,,1:10000,https://historicengland.org.uk/listing/the-list/list-entry/1002563,0.0393763446824984,SS 67222 42998,267222,142998,Holwell Barrow round barrow,,,,,,-1,0,-1,,,3190,836,1002563,1968/10/25,,1:10000,https://historicengland.org.uk/listing/the-list/list-entry/1002563,0.039376344682498,SS 67222 42998,267221.51300048,142997.81154554,70.8771331162367,393.619939492646,-3.900622744445909,51.17076472241415
837,1002564,Round barrow 300yds (273m) S of Woolhanger Camp,,,1:10000,https://historicengland.org.uk/listing/the-list/list-entry/1002564,0.027211055830883,SS 69133 44613,269133,144613,Round barrow 300yds (273m) S of Woolhanger Camp,,,,,,-1,0,-1,,,3192,837,1002564,,,1:10000,https://historicengland.org.uk/listing/the-list/list-entry/1002564,0.027211055830883,SS 69133 44613,269133.25850105,144613.251525,59.1193291626463,272.008042999596,-3.873892368994932,51.185719808514875
844,1002571,"St Brendan's Church (site of), Cheriton",1/1/1969 12:00:00 AM,,1:10000,https://historicengland.org.uk/listing/the-list/list-entry/1002571,0.240901590972597,SS 73807 46766,273807,146766,"St Brendan's Church (site of), Cheriton",,,,,,-1,0,-1,,,3166,844,1002571,1969/01/01,,1:10000,https://historicengland.org.uk/listing/the-list/list-entry/1002571,0.240901590972597,SS 73807 46766,273806.63199996,146765.7162382,188.379193016107,2408.0373004936,-3.8078081788013742,51.20612169795536
845,1002572,"Three standing stones 550m, 700m and 820m north of Damage Barton",12/2/1968 12:00:00 AM,,1:10000,https://historicengland.org.uk/listing/the-list/list-entry/1002572,0.0148353763467723,"SS 47197 46472, SS 47062 46329, SS 47041 46148",247197,146472,"Three standing stones 550m, 700m and 820m north of Damage Barton",,,,,,-1,0,-1,,,3163,845,1002572,1968/12/02,,1:10000,https://historicengland.org.uk/listing/the-list/list-entry/1002572,0.014835376346772,"SS 47197 46472, SS 47062 46329, SS 47041 46148","247197.20599937, 247197.20599937, 247197.20599937","146471.9375019, 146471.9375019, 146471.9375019",75.0866457089515,148.320653007395,-4.188327499547008,51.196977056072306
850,1002578,Henge monument on Parracombe Common,3/10/1969 12:00:00 AM,,1:10000,https://historicengland.org.uk/listing/the-list/list-entry/1002578,0.169940226944856,SS 69176 44886,269176,144886,Henge monument on Parracombe Common,,,,,,-1,0,-1,,,3176,850,1002578,1969/03/10,,1:10000,https://historicengland.org.uk/listing/the-list/list-entry/1002578,0.169940226944856,SS 69176 44886,269175.57750129,144886.26197716,147.721315665186,1698.76147250639,-3.873376966624779,51.188183147728296
851,1002579,North Thorne deserted medieval village,6/22/1973 12:00:00 AM,,1:10000,https://historicengland.org.uk/listing/the-list/list-entry/1002579,1.0760500202502,SS 64722 41242,264722,141242,North Thorne deserted medieval village,,,,,,-1,0,-1,,,3164,851,1002579,1973/06/22,,1:10000,https://historicengland.org.uk/listing/the-list/list-entry/1002579,1.0760500202502,SS 64722 41242,264722.16349983,141241.66064063,486.59261431143,10756.7545745017,-3.935699878936526,51.15439747529656
859,1002587,Enclosure 200yds (180m) WSW of Meacombe,1/14/1970 12:00:00 AM,,1:10000,https://historicengland.org.uk/listing/the-list/list-entry/1002587,0.0616426893474376,SX 72535 86628,272535,86628,Enclosure 200yds (180m) WSW of Meacombe,,,,,,-1,0,-1,,,3170,859,1002587,1970/01/14,,1:10000,https://historicengland.org.uk/listing/the-list/list-entry/1002587,0.061642689347438,SX 72535 86628,272535.18200111,86628.09156026,96.60334923235,616.181358005191,-3.8049518526117225,50.66532966455569
860,1002588,Hut circle 300yds (270m) SW of Meacombe,1/14/1970 12:00:00 AM,,1:10000,https://historicengland.org.uk/listing/the-list/list-entry/1002588,0.0226709767759874,SX 72620 86514,272620,86514,Hut circle 300yds (270m) SW of Meacombe,,,,,,-1,0,-1,,,3168,860,1002588,1970/01/14,,1:10000,https://historicengland.org.uk/listing/the-list/list-entry/1002588,0.022670976775987,SX 72620 86514,272620.11600113,86513.52441909,65.5661701134818,226.619360996874,-3.803710491537711,50.66432361699867
866,1002594,Camp in Woodford Wood,6/17/1970 12:00:00 AM,,1:10000,https://historicengland.org.uk/listing/the-list/list-entry/1002594,0.289119969880285,SS 39709 12664,239709,112664,Camp in Woodford Wood,,,,,,-1,0,-1,,,3172,866,1002594,1970/06/17,,1:10000,https://historicengland.org.uk/listing/the-list/list-entry/1002594,0.289119969880285,SS 39709 12664,239708.62900161,112663.58289246,199.818122862749,2890.71883747545,-4.2804352135467125,50.89115962535194
871,1002599,Two hut circles E of Foxes Holt,6/20/1972 12:00:00 AM,,1:10000,https://historicengland.org.uk/listing/the-list/list-entry/1002599,0.0520252067962122,"SX 64742 92315, SX 64726 92303",264742,92315,Two hut circles E of Foxes Holt,,,,,,-1,0,-1,,,3160,871,1002599,1972/06/20,,1:10000,https://historicengland.org.uk/listing/the-list/list-entry/1002599,0.052025206796212,"SX 64742 92315, SX 64726 92303","264741.58400154, 264741.58400154","92314.9151316, 92314.9151316",119.654864956301,520.071023015685,-3.917239641166588,50.71468302398354
882,1002610,Remains of chapel on Brent Hill,6/12/1972 12:00:00 AM,,1:10000,https://historicengland.org.uk/listing/the-list/list-entry/1002610,0.0108568827967263,SX 70317 61687,270317,61687,Remains of chapel on Brent Hill,,,,,,-1,0,-1,,,3171,882,1002610,1972/06/12,,1:10000,https://historicengland.org.uk/listing/the-list/list-entry/1002610,0.010856882796726,SX 70317 61687,270317.09100151,61686.8317876,42.1315588170635,108.527081998231,-3.8276266482119983,50.44066156631932
883,1002611,Earthworks in Boro' Wood,6/15/1972 12:00:00 AM,,1:10000,https://historicengland.org.uk/listing/the-list/list-entry/1002611,4.0587201870459,SX 74869 71598,274869,71598,Earthworks in Boro' Wood,,,,,,-1,0,-1,,,3162,883,1002611,1972/06/15,,1:10000,https://historicengland.org.uk/listing/the-list/list-entry/1002611,4.0587201870459,SX 74869 71598,274869.05450058,71597.64749857,749.464087654189,40570.4485125147,-3.766876019223229,50.53073823900225
888,1002616,Fice's Well,10/27/1971 12:00:00 AM,,1:10000,https://historicengland.org.uk/listing/the-list/list-entry/1002616,0.0024276382945156,SX 57731 75867,257731,75867,Fice's Well,,,,,,-1,0,-1,,,3186,888,1002616,1971/10/27,,1:10000,https://historicengland.org.uk/listing/the-list/list-entry/1002616,0.002427638294516,SX 57731 75867,257731.00300026,75866.50618795,17.7340213917221,24.2691049996009,-4.010164871947583,50.565185885294895
897,1002625,Two hut circles N of Lower Blackaton,5/21/1974 12:00:00 AM,,1:10000,https://historicengland.org.uk/listing/the-list/list-entry/1002625,0.0125646407789809,"SX 69465 78777, SX 69426 78778",269465,78777,Two hut circles N of Lower Blackaton,,,,,,-1,0,-1,,,3185,897,1002625,1974/05/21,,1:10000,https://historicengland.org.uk/listing/the-list/list-entry/1002625,0.012564640778981,"SX 69465 78777, SX 69426 78778","269465.12000084, 269465.12000084","78777.11522819, 78777.11522819",57.1656257051502,125.598822505054,-3.8456014884669654,50.59408308082389
902,1002630,Deserted medieval site N of Okehampton camp,3/20/1975 12:00:00 AM,,1:10000,https://historicengland.org.uk/listing/the-list/list-entry/1002630,1.01528012530929,SX 58561 93294,258561,93294,Deserted medieval site N of Okehampton camp,,,,,,-1,0,-1,,,3124,902,1002630,1975/03/20,,1:10000,https://historicengland.org.uk/listing/the-list/list-entry/1002630,1.01528012530929,SX 58561 93294,258560.55200195,93293.74269184,516.657947261064,10149.6946965191,-4.005110674217564,50.722009115187326
911,1002639,Kenwith Castle 330yds (300m) SE of Kenwith,3/13/1975 12:00:00 AM,,1:10000,https://historicengland.org.uk/listing/the-list/list-entry/1002639,0.192481222160028,SS 43291 27381,243291,127381,Kenwith Castle 330yds (300m) SE of Kenwith,,,,,,-1,0,-1,,,3128,911,1002639,1975/03/13,,1:10000,https://historicengland.org.uk/listing/the-list/list-entry/1002639,0.192481222160028,SS 43291 27381,243291.0550003,127380.86240948,170.270108181782,1924.43836399124,-4.235888060023009,51.02438227730991
912,1002640,Cross ridge dyke on Godborough Castle earthwork NW of Turner's Wood,10/16/1974 12:00:00 AM,,1:10000,https://historicengland.org.uk/listing/the-list/list-entry/1002640,0.37206333625718,SS 43667 27353,243667,127353,Cross ridge dyke on Godborough Castle earthwork NW of Turner's Wood,,,,,,-1,0,-1,,,3129,912,1002640,1974/10/16,,1:10000,https://historicengland.org.uk/listing/the-list/list-entry/1002640,0.37206333625718,SS 43667 27353,243666.57800102,127353.33514623,341.939853364951,3719.90036703134,-4.230518950871302,51.02423312246205
918,1002647,Barrows SE of Martinhoe,11/25/1977 12:00:00 AM,,1:10000,https://historicengland.org.uk/listing/the-list/list-entry/1002647,0.238798247480572,"SS 67326 48332, SS 67259 48349, SS 67117 48472, SS 67199 48463, SS 67189 48428, SS 67293 48232",267326,148332,Barrows SE of Martinhoe,,,,,,-1,0,-1,,,3181,918,1002647,1977/11/25,,1:10000,https://historicengland.org.uk/listing/the-list/list-entry/1002647,0.238798247480572,"SS 67326 48332, SS 67259 48349, SS 67117 48472, SS 67199 48463, SS 67189 48428, SS 67293 48232","267326.3710022, 267326.3710022, 267326.3710022, 267326.3710022, 267326.3710022, 267326.3710022","148331.61725447, 148331.61725447, 148331.61725447, 148331.61725447, 148331.61725447, 148331.61725447",432.252116412731,2387.11206148087,-3.9011086491088087,51.21872545392061
921,1002650,Hut circle NE of Thornworthy Lodge,6/14/1977 12:00:00 AM,,1:10000,https://historicengland.org.uk/listing/the-list/list-entry/1002650,0.0160604715829679,SX 67262 85121,267262,85121,Hut circle NE of Thornworthy Lodge,,,,,,-1,0,-1,,,3182,921,1002650,1977/06/14,,1:10000,https://historicengland.org.uk/listing/the-list/list-entry/1002650,0.016060471582968,SX 67262 85121,267261.83300209,85121.13507042,45.846005713755,160.546149001224,-3.878980412721924,50.650605654652885
922,1002651,Hut circles W of Higher Shapley,6/14/1977 12:00:00 AM,,1:10000,https://historicengland.org.uk/listing/the-list/list-entry/1002651,0.0281514729206021,"SX 68075 84691, SX 68082 84751",268075,84691,Hut circles W of Higher Shapley,,,,,,-1,0,-1,,,3202,922,1002651,1977/06/14,,1:10000,https://historicengland.org.uk/listing/the-list/list-entry/1002651,0.028151472920602,"SX 68075 84691, SX 68082 84751","268075.42449951, 268075.42449951","84691.2310009, 84691.2310009",85.1019280054939,281.410604014688,-3.867333541504386,50.64692564795081
924,1002653,Medieval homesteads S of Meldon quarry,4/15/1977 12:00:00 AM,,1:10000,https://historicengland.org.uk/listing/the-list/list-entry/1002653,1.69084028559569,"SX 57456 92469, SX 57476 92226",257476,92226,Medieval homesteads S of Meldon quarry,,,,,,-1,0,-1,,,3197,924,1002653,1977/04/15,,1:10000,https://historicengland.org.uk/listing/the-list/list-entry/1002653,1.69084028559569,"SX 57456 92469, SX 57476 92226","257476.21350097, 257476.21350097","92226.16763761, 92226.16763761",701.995642381595,16903.3564794938,-4.020058711335486,50.712145609890015
925,1002654,Deserted medieval site 1/4 mile (400m) W of Okehampton camp,11/24/1977 12:00:00 AM,,1:10000,https://historicengland.org.uk/listing/the-list/list-entry/1002654,1.89471907621435,SX 58030 92979,258030,92979,Deserted medieval site 1/4 mile (400m) W of Okehampton camp,,,,,,-1,0,-1,,,3198,925,1002654,1977/11/24,,1:10000,https://historicengland.org.uk/listing/the-list/list-entry/1002654,1.89471907621435,SX 58030 92979,258030.35350227,92978.58738096,529.452121987361,18941.4626585209,-4.012507015273884,50.71904858580853
934,1002663,Round barrow NW of Harbourneford,3/29/1978 12:00:00 AM,,1:10000,https://historicengland.org.uk/listing/the-list/list-entry/1002663,0.0232754576376916,SX 71376 62357,271376,62357,Round barrow NW of Harbourneford,,,,,,-1,0,-1,,,3187,934,1002663,1978/03/29,,1:10000,https://historicengland.org.uk/listing/the-list/list-entry/1002663,0.023275457637692,SX 71376 62357,271375.81000137,62356.88322467,54.6422391878917,232.663557999663,-3.812951335841534,50.44691717166265
936,1002665,Enclosure SE of Dockwell Hole,5/4/1978 12:00:00 AM,,1:10000,https://historicengland.org.uk/listing/the-list/list-entry/1002665,0.405979631282577,SX 69736 64085,269736,64085,Enclosure SE of Dockwell Hole,,,,,,-1,0,-1,,,3180,936,1002665,1978/05/04,,1:10000,https://historicengland.org.uk/listing/the-list/list-entry/1002665,0.405979631282577,SX 69736 64085,269736.48800087,64084.57780925,226.648435890461,4058.2512634909,-3.836638820617349,50.46208712636474
938,1002667,Gawton arsenic mine and flue,1/1/1900 12:00:00 AM,,1:10000,https://historicengland.org.uk/listing/the-list/list-entry/1002667,7.06660237298122,SX 45252 68851,245252,68851,Gawton arsenic mine and flue,,,,,,-1,0,-1,,,3183,938,1002667,1900/01/01,,1:10000,https://historicengland.org.uk/listing/the-list/list-entry/1002667,7.06660237298122,SX 45252 68851,245252.26600075,68850.90138468,2018.11750650409,70651.2539985719,-4.183320924505182,50.49896349309257
939,1002668,"Romano-British villa, Downes, near Crediton",11/22/1988 12:00:00 AM,,1:10000,https://historicengland.org.uk/listing/the-list/list-entry/1002668,0.669626777305759,SX 85037 99198,285037,99198,"Romano-British villa, Downes, near Crediton",,,,,,-1,0,-1,,,3184,939,1002668,1988/11/22,,1:10000,https://historicengland.org.uk/listing/the-list/list-entry/1002668,0.669626777305759,SX 85037 99198,285037.44550132,99198.18004079,329.085420018883,6693.10191999709,-3.6320548917742457,50.780926882949686
952,1002683,Frampton Roman villa,6/12/1959 1:09:27 PM,,1:10000,https://historicengland.org.uk/listing/the-list/list-entry/1002683,0.759924180074346,SY 61599 95282,361599,95282,Frampton Roman villa,,,,,,-1,0,-1,,,3287,952,1002683,1959/06/12,,1:10000,https://historicengland.org.uk/listing/the-list/list-entry/1002683,0.759924180074346,SY 61599 95282,361598.59750175,95282.14766004,369.510137432738,7593.45878796653,-2.5457590474574077,50.755855455965566
954,1002685,Chambered tomb 900m south west of Manor Farm,10/15/1924 12:00:00 AM,,1:10000,https://historicengland.org.uk/listing/the-list/list-entry/1002685,0.0928538335744189,SY 55480 93782,355480,93782,Chambered tomb 900m south west of Manor Farm,,,,,,-1,0,-1,,,3278,954,1002685,1924/10/15,,1:10000,https://historicengland.org.uk/listing/the-list/list-entry/1002685,0.092853833574419,SY 55480 93782,355479.52100181,93782.27299631,108.030146190657,927.843225496385,-2.6323182592854613,50.741928974588184
956,1002687,Two conjoined bowl barrows 550m north east of Manor Farm,12/2/1960 12:00:00 AM,,1:10000,https://historicengland.org.uk/listing/the-list/list-entry/1002687,0.155381025970891,SY 62523 90806,362523,90806,Two conjoined bowl barrows 550m north east of Manor Farm,,,,,,-1,0,-1,,,3283,956,1002687,1960/12/02,,1:10000,https://historicengland.org.uk/listing/the-list/list-entry/1002687,0.155381025970891,SY 62523 90806,362523.04050254,90805.71039875,146.30425516716,1552.6249785207,-2.5322039762477644,50.71566669959737
958,1002689,Standing stone 700m south east of North Barn Farm,10/15/1924 12:00:00 AM,,1:10000,https://historicengland.org.uk/listing/the-list/list-entry/1002689,0.0077315977609572,SY 57250 91490,357250,91490,Standing stone 700m south east of North Barn Farm,,,,,,-1,0,-1,,,3285,958,1002689,1924/10/15,,1:10000,https://historicengland.org.uk/listing/the-list/list-entry/1002689,0.007731597760957,SY 57250 91490,357250.36499977,91489.6349999,31.2876151273155,77.257803995599,-2.6069682131662457,50.72145234316475
960,1002693,Helstone burial chamber,,,1:10000,https://historicengland.org.uk/listing/the-list/list-entry/1002693,0.0915068239944176,SY 60580 86703,360580,86703,Helstone burial chamber,,,,,,-1,0,-1,,,3288,960,1002693,,,1:10000,https://historicengland.org.uk/listing/the-list/list-entry/1002693,0.091506823994418,SY 60580 86703,360580.38400077,86702.7256312,113.142380521315,914.373555523618,-2.5592848919389404,50.6786424565708
962,1002695,Chambered long barrow N of Loscombe Plantation,,,1:10000,https://historicengland.org.uk/listing/the-list/list-entry/1002695,0.0668339331545412,SY 61406 89681,361406,89681,Chambered long barrow N of Loscombe Plantation,,,,,,-1,0,-1,,,3284,962,1002695,,,1:10000,https://historicengland.org.uk/listing/the-list/list-entry/1002695,0.066833933154541,SY 61406 89681,361405.76450157,89681.12824568,99.285564381088,667.830871504319,-2.5479068745451623,50.70547706563085
967,1002700,Disc barrow 715m west of Bayard Farm,10/15/1924 12:00:00 AM,,1:10000,https://historicengland.org.uk/listing/the-list/list-entry/1002700,0.543332934871844,SY 66308 86653,366308,86653,Disc barrow 715m west of Bayard Farm,,,,,,-1,0,-1,,,3280,967,1002700,1924/10/15,,1:10000,https://historicengland.org.uk/listing/the-list/list-entry/1002700,0.543332934871844,SY 66308 86653,366307.60549926,86652.946716,285.798991837389,5429.14886747548,-2.4782136497588887,50.67855379981611
974,1002707,Two long barrows on Gussage Hill,,,1:10000,https://historicengland.org.uk/listing/the-list/list-entry/1002707,0.359368344576014,"ST 99469 13601, ST 99303 13828",399469,113601,Two long barrows on Gussage Hill,,,,,,-1,0,-1,,,3251,974,1002707,,,1:10000,https://historicengland.org.uk/listing/the-list/list-entry/1002707,0.359368344576014,"ST 99469 13601, ST 99303 13828","399468.61700058, 399468.61700058","113600.63595133, 113600.63595133",308.184854165856,3590.81824150714,-2.0089258715237035,50.921866608698906
980,1002713,Bradford Barrow,1/1/1900 12:00:00 AM,,1:10000,https://historicengland.org.uk/listing/the-list/list-entry/1002713,0.117352802823093,ST 98098 04662,398098,104662,Bradford Barrow,,,,,,-1,0,-1,,,3277,980,1002713,1900/01/01,,1:10000,https://historicengland.org.uk/listing/the-list/list-entry/1002713,0.117352802823093,ST 98098 04662,398098.01449966,104661.80484184,121.686163045784,1172.59252349269,-2.0283816010013416,50.84148020849224
987,1002720,Remains of medieval buildings ('Abbey buildings'),6/24/1938 12:00:00 AM,,1:10000,https://historicengland.org.uk/listing/the-list/list-entry/1002720,0.0784679269014942,ST 99079 06341,399079,106341,Remains of medieval buildings ('Abbey buildings'),,,,,,-1,0,-1,,,3282,987,1002720,1938/06/24,,1:10000,https://historicengland.org.uk/listing/the-list/list-entry/1002720,0.078467926901494,ST 99079 06341,399079.24699974,106340.51961368,112.113469831819,784.053644004658,-2.0144537686813777,50.85658115523871
1000,1002733,Round barrow 250yds (230m) S of Chapel Coppice,7/12/1962 12:00:00 AM,,1:10000,https://historicengland.org.uk/listing/the-list/list-entry/1002733,0.100197374311983,SY 57379 84319,357379,84319,Round barrow 250yds (230m) S of Chapel Coppice,,,,,,-1,0,-1,,,3268,1000,1002733,1962/07/12,,1:10000,https://historicengland.org.uk/listing/the-list/list-entry/1002733,0.100197374311983,SY 57379 84319,357379.36850166,84319.11499977,112.633069670189,1001.2195869996,-2.6043115464912003,50.65697865564006
1003,1002736,Group of three round barrows W of Two Gates,,,1:10000,https://historicengland.org.uk/listing/the-list/list-entry/1002736,0.198541106156201,"SY 54883 94032, SY 54895 93943, SY 54935 93883",354883,94032,Group of three round barrows W of Two Gates,,,,,,-1,0,-1,,,3273,1003,1002736,,,1:10000,https://historicengland.org.uk/listing/the-list/list-entry/1002736,0.198541106156201,"SY 54883 94032, SY 54895 93943, SY 54935 93883","354882.60350227, 354882.60350227, 354882.60350227","94031.50549965, 94031.50549965, 94031.50549965",271.686425957583,1983.92721898824,-2.6408092877413982,50.74413079177789
1004,1002738,Bowl barrow 780m north east of Hampton Farm,3/9/1961 12:00:00 AM,,1:10000,https://historicengland.org.uk/listing/the-list/list-entry/1002738,0.0655055182383938,SY 63591 92220,363591,92220,Bowl barrow 780m north east of Hampton Farm,,,,,,-1,0,-1,,,3274,1004,1002738,1961/03/09,,1:10000,https://historicengland.org.uk/listing/the-list/list-entry/1002738,0.065505518238394,SY 63591 92220,363590.67200088,92219.59000015,90.737379810425,654.554231500834,-2.5172170717239593,50.728449914928966
1005,1002739,Long barrow NW of Red Barn,3/9/1961 12:00:00 AM,,1:10000,https://historicengland.org.uk/listing/the-list/list-entry/1002739,0.133791340836503,SY 63746 92346,363746,92346,Long barrow NW of Red Barn,,,,,,-1,0,-1,,,3275,1005,1002739,1961/03/09,,1:10000,https://historicengland.org.uk/listing/the-list/list-entry/1002739,0.133791340836503,SY 63746 92346,363746.30400085,92346.33060785,139.07318272855,1336.88987448489,-2.5150335145762504,50.729592668854266
1007,1002741,Two round barrows on Gussage Down,12/23/1953 12:00:00 AM,,1:10000,https://historicengland.org.uk/listing/the-list/list-entry/1002741,0.313603932765274,"ST 98359 13893, ST 98769 14013",398359,113893,Two round barrows on Gussage Down,,,,,,-1,0,-1,,,3276,1007,1002741,1953/12/23,,1:10000,https://historicengland.org.uk/listing/the-list/list-entry/1002741,0.313603932765274,"ST 98359 13893, ST 98769 14013","398358.7860012, 398358.7860012","113892.72000122, 113892.72000122",276.402446228673,3133.53909748096,-2.0247191225293273,50.92449006555699
1014,1002748,Two bowl barrows 283m SSE of the Grey Mare and her Colts,8/8/1957 12:00:00 AM,,1:10000,https://historicengland.org.uk/listing/the-list/list-entry/1002748,0.158335191429019,"SY 58676 86771, SY 58384 86819",358676,86771,Two bowl barrows 283m SSE of the Grey Mare and her Colts,,,,,,-1,0,-1,,,3267,1014,1002748,1957/08/08,,1:10000,https://historicengland.org.uk/listing/the-list/list-entry/1002748,0.158335191429019,"SY 58676 86771, SY 58384 86819","358676.1950016, 358676.1950016","86771.09550094, 86771.09550094",200.235441673578,1582.15635500037,-2.5862388715170592,50.67912146092295
1015,1002749,Old Warren earthwork,,,1:10000,https://historicengland.org.uk/listing/the-list/list-entry/1002749,2.70179064896722,SY 58427 88504,358427,88504,Old Warren earthwork,,,,,,-1,0,-1,,,3272,1015,1002749,,,1:10000,https://historicengland.org.uk/listing/the-list/list-entry/1002749,2.70179064896722,SY 58427 88504,358427.43700027,88504.12277633,591.955926984702,26997.5117260546,-2.5899583584169745,50.694687236912344
1017,1002751,Round barrow SW of village,,,1:10000,https://historicengland.org.uk/listing/the-list/list-entry/1002751,0.0731861488101109,SY 62335 88955,362335,88955,Round barrow SW of village,,,,,,-1,0,-1,,,3271,1017,1002751,,,1:10000,https://historicengland.org.uk/listing/the-list/list-entry/1002751,0.073186148810111,SY 62335 88955,362335.36300087,88955.4973508,96.5031311402624,731.303490494782,-2.534677321041327,50.699009764063625
1020,1002754,Two bowl barrows immediately south of Bayard Dairy,8/9/1957 12:00:00 AM,,1:10000,https://historicengland.org.uk/listing/the-list/list-entry/1002754,0.101875561168318,"SY 66481 85368, SY 66409 85349",366409,85349,Two bowl barrows immediately south of Bayard Dairy,,,,,,-1,0,-1,,,3270,1020,1002754,1957/08/09,,1:10000,https://historicengland.org.uk/listing/the-list/list-entry/1002754,0.101875561168318,"SY 66481 85368, SY 66409 85349","366408.58500099, 366408.58500099","85348.91450119, 85348.91450119",159.368419553773,1017.97152399528,-2.476665392747423,50.666833526321824
1021,1002755,Round barrows on Four Barrow Hill,,,1:10000,https://historicengland.org.uk/listing/the-list/list-entry/1002755,0.572903085946271,"SY 65176 88084, SY 65148 88033, SY 65132 87972, SY 65094 87921, SY 65063 87873",365176,88084,Round barrows on Four Barrow Hill,,,,,,-1,0,-1,,,3266,1021,1002755,,,1:10000,https://historicengland.org.uk/listing/the-list/list-entry/1002755,0.572903085946271,"SY 65176 88084, SY 65148 88033, SY 65132 87972, SY 65094 87921, SY 65063 87873","365176.4470005, 365176.4470005, 365176.4470005, 365176.4470005, 365176.4470005","88083.93121256, 88083.93121256, 88083.93121256, 88083.93121256, 88083.93121256",603.06524205726,5724.63434700285,-2.494369754818937,50.69135504554154
1023,1002757,Round barrows on Grove Hill,,,1:10000,https://historicengland.org.uk/listing/the-list/list-entry/1002757,0.268742251762121,"SY 63868 88487, SY 63905 88496, SY 64117 88514",364117,88514,Round barrows on Grove Hill,,,,,,-1,0,-1,,,3269,1023,1002757,,,1:10000,https://historicengland.org.uk/listing/the-list/list-entry/1002757,0.268742251762121,"SY 63868 88487, SY 63905 88496, SY 64117 88514","364116.86499977, 364116.86499977, 364116.86499977","88513.6685009, 88513.6685009, 88513.6685009",319.126784566092,2685.36546752044,-2.509403385904253,50.69515718315349
1029,1002763,Group of round barrows W of Ridgeway Hill,,,1:10000,https://historicengland.org.uk/listing/the-list/list-entry/1002763,0.443583548340331,"SY 66919 85962, SY 66916 85906, SY 66864 86130, SY 66813 86069, SY 66793 86044, SY 66877 85988, SY 67011 85916",366864,86130,Group of round barrows W of Ridgeway Hill,,,,,,-1,0,-1,,,3147,1029,1002763,,,1:10000,https://historicengland.org.uk/listing/the-list/list-entry/1002763,0.443583548340331,"SY 66919 85962, SY 66916 85906, SY 66864 86130, SY 66813 86069, SY 66793 86044, SY 66877 85988, SY 67011 85916","366863.53750038, 366863.53750038, 366863.53750038, 366863.53750038, 366863.53750038, 366863.53750038, 366863.53750038","86129.77599907, 86129.77599907, 86129.77599907, 86129.77599907, 86129.77599907, 86129.77599907, 86129.77599907",618.747665441022,4432.41825606346,-2.4702977105133965,50.67388279144305
1034,1002768,Two barrows 600yds (550m) N of Halls Farm,,,1:10000,https://historicengland.org.uk/listing/the-list/list-entry/1002768,0.0618523786308682,"SY 72375 84211, SY 72428 84215",372375,84211,Two barrows 600yds (550m) N of Halls Farm,,,,,,-1,0,-1,,,3146,1034,1002768,,,1:10000,https://historicengland.org.uk/listing/the-list/list-entry/1002768,0.061852378630868,"SY 72375 84211, SY 72428 84215","372374.87700081, 372374.87700081","84210.94400215, 84210.94400215",125.148407324719,618.042216000793,-2.392165268533282,50.6569148554167
1037,1002771,Group of barrows on West Hill,,,1:10000,https://historicengland.org.uk/listing/the-list/list-entry/1002771,0.746668006753085,"SY 70266 84646, SY 70187 84612, SY 70354 84681, SY 70393 84700, SY 70480 84734, SY 70528 84748, SY 70588 84815, SY 70324 84667, SY 70730 84807",370187,84612,Group of barrows on West Hill,,,,,,-1,0,-1,,,3144,1037,1002771,,,1:10000,https://historicengland.org.uk/listing/the-list/list-entry/1002771,0.746668006753085,"SY 70266 84646, SY 70187 84612, SY 70354 84681, SY 70393 84700, SY 70480 84734, SY 70528 84748, SY 70588 84815, SY 70324 84667, SY 70730 84807","370186.52300071, 370186.52300071, 370186.52300071, 370186.52300071, 370186.52300071, 370186.52300071, 370186.52300071, 370186.52300071, 370186.52300071","84611.5020008, 84611.5020008, 84611.5020008, 84611.5020008, 84611.5020008, 84611.5020008, 84611.5020008, 84611.5020008, 84611.5020008",914.896183908047,7460.88745850745,-2.4231498420497886,50.66041252458563
1039,1002773,Barrow S of Common Plantation,,,1:10000,https://historicengland.org.uk/listing/the-list/list-entry/1002773,0.111640427900186,SY 73625 87804,373625,87804,Barrow S of Common Plantation,,,,,,-1,0,-1,,,3255,1039,1002773,,,1:10000,https://historicengland.org.uk/listing/the-list/list-entry/1002773,0.111640427900186,SY 73625 87804,373625.29900169,87803.59200096,118.889232160962,1115.53330997603,-2.374739621900599,50.68928329280136
1047,1002781,Bowl barrow 45m south west of Bowldish Pond,2/4/1953 12:00:00 AM,,1:10000,https://historicengland.org.uk/listing/the-list/list-entry/1002781,0.0772613545066854,SU 03237 15019,403237,115019,Bowl barrow 45m south west of Bowldish Pond,,,,,,-1,0,-1,,,3257,1047,1002781,1953/02/04,,1:10000,https://historicengland.org.uk/listing/the-list/list-entry/1002781,0.077261354506685,SU 03237 15019,403237.05349922,115018.93700012,98.541984592124,771.997733504208,-1.955306819630033,50.93460966951778
1048,1002782,Barrows in and near St Giles Park,5/23/1958 12:00:00 AM,,1:10000,https://historicengland.org.uk/listing/the-list/list-entry/1002782,0.543073881883002,"SU 04635 11596, SU 04097 11540, SU 04433 11851, SU 04527 12064, SU 04617 11555",404433,111851,Barrows in and near St Giles Park,,,,,,-1,0,-1,,,3258,1048,1002782,1958/05/23,,1:10000,https://historicengland.org.uk/listing/the-list/list-entry/1002782,0.543073881883002,"SU 04635 11596, SU 04097 11540, SU 04433 11851, SU 04527 12064, SU 04617 11555","404432.93000221, 404432.93000221, 404432.93000221, 404432.93000221, 404432.93000221","111851.38200187, 111851.38200187, 111851.38200187, 111851.38200187, 111851.38200187",577.683567149548,5426.41156050428,-1.9383243299111563,50.90611417307133
1053,1002787,Barrow near Burtts Harley,5/23/1958 12:00:00 AM,,1:10000,https://historicengland.org.uk/listing/the-list/list-entry/1002787,0.117596392291527,SU 00137 12924,400137,112924,Barrow near Burtts Harley,,,,,,-1,0,-1,,,3137,1053,1002787,1958/05/23,,1:10000,https://historicengland.org.uk/listing/the-list/list-entry/1002787,0.117596392291527,SU 00137 12924,400137.24400138,112923.78899955,122.018320441268,1175.02628598739,-1.9994223509545337,50.91577914043263
1054,1002788,Barrows in and near The Drive Plantation,3/25/1958 12:00:00 AM,,1:10000,https://historicengland.org.uk/listing/the-list/list-entry/1002788,0.522737323325989,"SU 01178 15173, SU 01550 15149, SU 01287 15278, SU 01245 15229, SU 01641 15223, SU 01447 14905, SU 01462 14759, SU 01289 15212",401447,114905,Barrows in and near The Drive Plantation,,,,,,-1,0,-1,,,3138,1054,1002788,1958/03/25,,1:10000,https://historicengland.org.uk/listing/the-list/list-entry/1002788,0.522737323325989,"SU 01178 15173, SU 01550 15149, SU 01287 15278, SU 01245 15229, SU 01641 15223, SU 01447 14905, SU 01462 14759, SU 01289 15212","401447.00200081, 401447.00200081, 401447.00200081, 401447.00200081, 401447.00200081, 401447.00200081, 401447.00200081, 401447.00200081","114904.62949943, 114904.62949943, 114904.62949943, 114904.62949943, 114904.62949943, 114904.62949943, 114904.62949943, 114904.62949943",711.631494432671,5223.20565101956,-1.980780322732793,50.933591455403274
1057,1002791,Barrows at junction of parish boundaries,6/30/1958 12:00:00 AM,,1:10000,https://historicengland.org.uk/listing/the-list/list-entry/1002791,0.152452991551467,"SU 01352 16234, SU 01386 16255, SU 01413 16277",401386,116255,Barrows at junction of parish boundaries,,,,,,-1,0,-1,,,3143,1057,1002791,1958/06/30,,1:10000,https://historicengland.org.uk/listing/the-list/list-entry/1002791,0.152452991551467,"SU 01352 16234, SU 01386 16255, SU 01413 16277","401385.52050209, 401385.52050209, 401385.52050209","116254.78730142, 116254.78730142, 116254.78730142",239.091136967757,1523.31448647264,-1.981643671155936,50.94573123860469
